Name,HIFLD_Name,HIFLD_ID,city,City_Prop,zip,type,Type_Prop,status,Stat_Prop,county,Count_Prop,countyfips,StateShort,StateFull,country,latitude,longitude,naics_code,naics_desc,source,sourcedate,val_method,val_date,lines,LineTxt,max_volt,CurrentMax,min_volt,CurrentMin,max_infer,min_infer,MinVoltCat,geometry
Gore,UNKNOWN108970,108970,GORE,Gore,22637,SUBSTATION,Substation,IN SERVICE,In service,FREDERICK,Frederick,51069,VA,Virginia,USA,39.276202978,-78.364642183,221121,ELECTRIC BULK POWER TRANSMISSION AND CONTROL,http://wvgis.wvu.edu/data/data.php,2014-04-07,IMAGERY,2015-10-12,-999999.0,Unknown,-999999.0,Unknown,-999999.0,Unknown,N,N,Unknown,POINT (-78.36464218292232 39.276202978290364)
Imboden,IMBODEN,109418,APPALACHIA,Appalachia,24216,SUBSTATION,Substation,IN SERVICE,In service,WISE,Wise,51195,VA,Virginia,USA,36.881392828,-82.812629194,221121,ELECTRIC BULK POWER TRANSMISSION AND CONTROL,"IMAGERY, http://psc.ky.gov/pscecf/2016-00370/derek.rahn@lge-ku.com/02202017101534/2016_AG_DR2_KU_Attach_to_Q109.xls",2014-04-16,IMAGERY,2019-02-07,7.0,7,161.0,161,69.0,69,Y,N,69 to 114,POINT (-82.8126291937461 36.881392827846916)
Dorchester,DORCHESTER,109430,NORTON,Norton,24273,SUBSTATION,Substation,IN SERVICE,In service,NORTON,Norton,51720,VA,Virginia,USA,36.93299155,-82.646730906,221121,ELECTRIC BULK POWER TRANSMISSION AND CONTROL,"IMAGERY, http://psc.ky.gov/pscecf/2016-00370/derek.rahn@lge-ku.com/02202017101534/2016_AG_DR2_KU_Attach_to_Q109.xls",2014-04-16,IMAGERY,2019-02-07,7.0,7,161.0,161,-999999.0,Unknown,Y,N,Unknown,POINT (-82.6467309061381 36.93299154981974)
Richlands,RICHLANDS,113073,RICHLANDS,Richlands,24641,SUBSTATION,Substation,IN SERVICE,In service,TAZEWELL,Tazewell,51185,VA,Virginia,USA,37.092140444,-81.806642638,221121,ELECTRIC BULK POWER TRANSMISSION AND CONTROL,"IMAGERY, https://aeptransmission.com/virginia/Tazewell-Bearwallow/docs/VOLUME%201%20(Exhibits%206%20through%2013).pdf",2014-06-25,IMAGERY,2019-02-06,4.0,4,138.0,138,69.0,69,Y,N,69 to 114,POINT (-81.80664263827431 37.092140443900995)
Claypool Hill,CLAYPOOL HILL,113074,CEDAR BLUFF,Cedar Bluff,24609,SUBSTATION,Substation,IN SERVICE,In service,TAZEWELL,Tazewell,51185,VA,Virginia,USA,37.045245075,-81.775463668,221121,ELECTRIC BULK POWER TRANSMISSION AND CONTROL,"IMAGERY, https://aeptransmission.com/virginia/Tazewell-Bearwallow/docs/VOLUME%201%20(Exhibits%206%20through%2013).pdf",2014-06-25,IMAGERY,2019-02-06,2.0,2,138.0,138,138.0,138,Y,Y,115 to 229,POINT (-81.77546366794967 37.045245074808655)
Sandy Ridge,SANDY RIDGE,113075,RICHLANDS,Richlands,24641,SUBSTATION,Substation,IN SERVICE,In service,TAZEWELL,Tazewell,51185,VA,Virginia,USA,37.173709944,-81.815618283,221121,ELECTRIC BULK POWER TRANSMISSION AND CONTROL,"IMAGERY, https://aeptransmission.com/virginia/Tazewell-Bearwallow/docs/VOLUME%201%20(Exhibits%206%20through%2013).pdf",2014-06-25,IMAGERY,2019-02-06,1.0,1,69.0,69,69.0,69,N,N,69 to 114,POINT (-81.81561828299637 37.17370994412246)
Jewell Ridge,JEWELL RIDGE,113076,JEWELL RIDGE,Jewell Ridge,24622,SUBSTATION,Substation,IN SERVICE,In service,TAZEWELL,Tazewell,51185,VA,Virginia,USA,37.192425872,-81.783045603,221121,ELECTRIC BULK POWER TRANSMISSION AND CONTROL,"IMAGERY, https://aeptransmission.com/virginia/Tazewell-Bearwallow/docs/VOLUME%201%20(Exhibits%206%20through%2013).pdf",2014-06-25,IMAGERY,2019-02-06,3.0,3,69.0,69,69.0,69,N,N,69 to 114,POINT (-81.78304560255955 37.19242587221353)
Jewell Branch,JEWELL BRANCH,113077,JEWELL RIDGE,Jewell Ridge,24622,SUBSTATION,Substation,IN SERVICE,In service,BUCHANAN,Buchanan,51027,VA,Virginia,USA,37.223098076,-81.792823919,221121,ELECTRIC BULK POWER TRANSMISSION AND CONTROL,"IMAGERY, https://aeptransmission.com/virginia/Tazewell-Bearwallow/docs/VOLUME%201%20(Exhibits%206%20through%2013).pdf",2014-06-25,IMAGERY,2019-02-06,3.0,3,69.0,69,69.0,69,N,N,69 to 114,POINT (-81.7928239189374 37.22309807577476)
Buckhorn,BUCKHORN,113080,NORTH TAZEWELL,North Tazewell,24630,SUBSTATION,Substation,IN SERVICE,In service,TAZEWELL,Tazewell,51185,VA,Virginia,USA,37.135488766,-81.495851519,221121,ELECTRIC BULK POWER TRANSMISSION AND CONTROL,"IMAGERY, https://aeptransmission.com/virginia/Tazewell-Bearwallow/docs/VOLUME%201%20(Exhibits%206%20through%2013).pdf",2014-06-25,IMAGERY,2019-02-06,2.0,2,138.0,138,138.0,138,Y,Y,115 to 229,POINT (-81.49585151936552 37.13548876602594)
Lonesome Pine,LONESOME PINE,113081,BLUEFIELD,Bluefield,24605,SUBSTATION,Substation,IN SERVICE,In service,TAZEWELL,Tazewell,51185,VA,Virginia,USA,37.236661525,-81.313953741,221121,ELECTRIC BULK POWER TRANSMISSION AND CONTROL,"IMAGERY, https://aeptransmission.com/virginia/Tazewell-Bearwallow/docs/VOLUME%201%20(Exhibits%206%20through%2013).pdf",2014-06-25,IMAGERY,2019-02-06,2.0,2,138.0,138,138.0,138,N,N,115 to 229,POINT (-81.31395374067729 37.23666152534078)
Clinchfield,CLINCHFIELD,113087,CLEVELAND,Cleveland,24225,SUBSTATION,Substation,IN SERVICE,In service,RUSSELL,Russell,51167,VA,Virginia,USA,36.983348164,-82.182834068,221121,ELECTRIC BULK POWER TRANSMISSION AND CONTROL,"IMAGERY, https://aeptransmission.com/virginia/Tazewell-Bearwallow/docs/VOLUME%201%20(Exhibits%206%20through%2013).pdf",2014-06-26,IMAGERY,2019-02-06,4.0,4,138.0,138,-999999.0,Unknown,Y,Y,Unknown,POINT (-82.18283406801925 36.98334816365919)
Fletchers Ridge,FLETCHERS RIDGE,113088,VANSANT,Vansant,24656,SUBSTATION,Substation,IN SERVICE,In service,BUCHANAN,Buchanan,51027,VA,Virginia,USA,37.113978281,-82.069052922,221121,ELECTRIC BULK POWER TRANSMISSION AND CONTROL,"IMAGERY, https://aeptransmission.com/virginia/Tazewell-Bearwallow/docs/VOLUME%201%20(Exhibits%206%20through%2013).pdf",2014-06-26,IMAGERY,2019-02-06,2.0,2,138.0,138,138.0,138,Y,Y,115 to 229,POINT (-82.06905292233003 37.1139782811872)
Hales Branch,HALES BRANCH,113089,OAKWOOD,Oakwood,24631,SUBSTATION,Substation,IN SERVICE,In service,BUCHANAN,Buchanan,51027,VA,Virginia,USA,37.260518005,-81.943080533,221121,ELECTRIC BULK POWER TRANSMISSION AND CONTROL,"IMAGERY, https://aeptransmission.com/virginia/Tazewell-Bearwallow/docs/VOLUME%201%20(Exhibits%206%20through%2013).pdf",2014-06-26,IMAGERY,2019-02-06,6.0,6,138.0,138,69.0,69,Y,N,69 to 114,POINT (-81.94308053330751 37.26051800532376)
Jewell Smokeless C and C Coal Co,JEWELL SMOKELESS C AND C COAL CO,113090,PILGRIMS KNOB,Pilgrims Knob,24634,SUBSTATION,Substation,IN SERVICE,In service,BUCHANAN,Buchanan,51027,VA,Virginia,USA,37.246743077,-81.928323017,221121,ELECTRIC BULK POWER TRANSMISSION AND CONTROL,IMAGERY,2014-06-26,IMAGERY,2019-02-06,1.0,1,69.0,69,69.0,69,N,N,69 to 114,POINT (-81.9283230170065 37.24674307717373)
Shack Mills Station,SHACK MILLS STATION,113091,RAVEN,Raven,24639,SUBSTATION,Substation,IN SERVICE,In service,BUCHANAN,Buchanan,51027,VA,Virginia,USA,37.213488762,-81.903817364,221121,ELECTRIC BULK POWER TRANSMISSION AND CONTROL,"IMAGERY, https://aeptransmission.com/virginia/Tazewell-Bearwallow/docs/VOLUME%201%20(Exhibits%206%20through%2013).pdf",2014-06-26,IMAGERY,2019-02-06,2.0,2,138.0,138,138.0,138,Y,Y,115 to 229,POINT (-81.90381736412793 37.21348876209025)
Kean Mtn and Grassy Creek,KEAN MTN AND GRASSY CREEK,113092,RAVEN,Raven,24639,SUBSTATION,Substation,IN SERVICE,In service,BUCHANAN,Buchanan,51027,VA,Virginia,USA,37.174664831,-81.922540752,221121,ELECTRIC BULK POWER TRANSMISSION AND CONTROL,"IMAGERY, https://aeptransmission.com/virginia/Tazewell-Bearwallow/docs/VOLUME%201%20(Exhibits%206%20through%2013).pdf",2014-06-26,IMAGERY,2019-02-06,2.0,2,138.0,138,138.0,138,Y,Y,115 to 229,POINT (-81.92254075196547 37.17466483134411)
Buchanan Generation LLC,BUCHANAN GENERATION LLC,113093,OAKWOOD,Oakwood,24631,SUBSTATION,Substation,IN SERVICE,In service,BUCHANAN,Buchanan,51027,VA,Virginia,USA,37.175484119,-81.961054985,221121,ELECTRIC BULK POWER TRANSMISSION AND CONTROL,"IMAGERY, EIA 860",2014-06-26,IMAGERY,2021-06-01,2.0,2,138.0,138,138.0,138,Y,Y,115 to 229,POINT (-81.96105498491289 37.17548411881457)
Looney Creek,LOONEY CREEK,113094,GRUNDY,Grundy,24614,SUBSTATION,Substation,IN SERVICE,In service,BUCHANAN,Buchanan,51027,VA,Virginia,USA,37.315534781,-82.09443031,221121,ELECTRIC BULK POWER TRANSMISSION AND CONTROL,"IMAGERY, https://aeptransmission.com/virginia/Tazewell-Bearwallow/docs/VOLUME%201%20(Exhibits%206%20through%2013).pdf",2014-06-26,IMAGERY,2019-02-06,4.0,4,138.0,138,69.0,69,Y,N,69 to 114,POINT (-82.09443031024178 37.31553478065413)
Grundy,GRUNDY,113095,GRUNDY,Grundy,24614,SUBSTATION,Substation,IN SERVICE,In service,BUCHANAN,Buchanan,51027,VA,Virginia,USA,37.30119801,-82.124632632,221121,ELECTRIC BULK POWER TRANSMISSION AND CONTROL,"IMAGERY, https://aeptransmission.com/virginia/Tazewell-Bearwallow/docs/VOLUME%201%20(Exhibits%206%20through%2013).pdf",2014-06-26,IMAGERY,2019-02-06,3.0,3,69.0,69,69.0,69,N,N,69 to 114,POINT (-82.12463263218956 37.30119801011463)
Freemont,FREEMONT,113964,CLINTWOOD,Clintwood,24228,SUBSTATION,Substation,IN SERVICE,In service,DICKENSON,Dickenson,51051,VA,Virginia,USA,37.129821096,-82.396448409,221121,ELECTRIC BULK POWER TRANSMISSION AND CONTROL,"IMAGERY, http://www.pjm.com/-/media/markets-ops/trans-service/trans-fac/aepsct.ashx",2014-06-27,IMAGERY,2017-10-19,7.0,7,138.0,138,-999999.0,Unknown,Y,N,Unknown,POINT (-82.39644840932235 37.12982109628076)
Lockhart,LOCKHART,113965,CLINTWOOD,Clintwood,24228,SUBSTATION,Substation,IN SERVICE,In service,DICKENSON,Dickenson,51051,VA,Virginia,USA,37.153858411,-82.425601962,221121,ELECTRIC BULK POWER TRANSMISSION AND CONTROL,"IMAGERY, https://aeptransmission.com/virginia/Tazewell-Bearwallow/docs/VOLUME%201%20(Exhibits%206%20through%2013).pdf",2014-06-27,IMAGERY,2019-02-06,2.0,2,138.0,138,138.0,138,Y,Y,115 to 229,POINT (-82.42560196165063 37.153858411146466)
Moss,MOSS,113966,CLINCHCO,Clinchco,24226,SUBSTATION,Substation,IN SERVICE,In service,DICKENSON,Dickenson,51051,VA,Virginia,USA,37.151894166,-82.356432843,221121,ELECTRIC BULK POWER TRANSMISSION AND CONTROL,"IMAGERY, https://aeptransmission.com/virginia/Tazewell-Bearwallow/docs/VOLUME%201%20(Exhibits%206%20through%2013).pdf",2014-06-27,IMAGERY,2019-02-06,2.0,2,69.0,69,69.0,69,N,N,69 to 114,POINT (-82.35643284270184 37.15189416614445)
Wolf Hills Energy,WOLF HILLS ENERGY,113973,BRISTOL,Bristol,24202,SUBSTATION,Substation,IN SERVICE,In service,WASHINGTON,Washington,51191,VA,Virginia,USA,36.663592036,-82.103898667,221121,ELECTRIC BULK POWER TRANSMISSION AND CONTROL,"IMAGERY, EIA 860",2014-06-27,IMAGERY,2021-06-01,6.0,6,138.0,138,138.0,138,Y,Y,115 to 229,POINT (-82.10389866742246 36.6635920358173)
Danville New Design Plant,DANVILLE NEW DESIGN PLANT,114444,DANVILLE,Danville,24540,SUBSTATION,Substation,IN SERVICE,In service,DANVILLE,Danville,51590,VA,Virginia,USA,36.631676032,-79.397570093,221121,ELECTRIC BULK POWER TRANSMISSION AND CONTROL,"IMAGERY, EIA 860",2014-07-08,IMAGERY,2021-06-01,3.0,3,69.0,69,-999999.0,Unknown,Y,Y,Unknown,POINT (-79.39757009321553 36.631676031691825)
Danville Westover Plant,DANVILLE WESTOVER PLANT,114448,DANVILLE,Danville,24541,SUBSTATION,Substation,IN SERVICE,In service,DANVILLE,Danville,51590,VA,Virginia,USA,36.60656779,-79.457745699,221121,ELECTRIC BULK POWER TRANSMISSION AND CONTROL,"IMAGERY, EIA 860",2014-07-08,IMAGERY,2021-06-01,2.0,2,69.0,69,69.0,69,Y,Y,69 to 114,POINT (-79.45774569905296 36.60656779014002)
Mecklenburg Power Station,MECKLENBURG POWER STATION,114495,CLARKSVILLE,Clarksville,23927,SUBSTATION,Substation,IN SERVICE,In service,MECKLENBURG,Mecklenburg,51117,VA,Virginia,USA,36.600861242,-78.528776927,221121,ELECTRIC BULK POWER TRANSMISSION AND CONTROL,"IMAGERY, EIA 860",2014-07-14,IMAGERY,2021-06-01,5.0,5,115.0,115,115.0,115,Y,Y,115 to 229,POINT (-78.52877692671066 36.60086124195375)
Emporia,EMPORIA,114508,EMPORIA,Emporia,23847,SUBSTATION,Substation,IN SERVICE,In service,EMPORIA,Emporia,51595,VA,Virginia,USA,36.695860611,-77.5596501,221121,ELECTRIC BULK POWER TRANSMISSION AND CONTROL,"IMAGERY, EIA 860",2014-07-15,IMAGERY,2021-06-01,3.0,3,115.0,115,115.0,115,Y,Y,115 to 229,POINT (-77.55965009967238 36.69586061093672)
Southampton Power Station,SOUTHAMPTON POWER STATION,114522,COURTLAND,Courtland,23837,SUBSTATION,Substation,IN SERVICE,In service,SOUTHAMPTON,Southampton,51175,VA,Virginia,USA,36.653186645,-76.99554592,221121,ELECTRIC BULK POWER TRANSMISSION AND CONTROL,"IMAGERY, EIA 860",2014-07-16,IMAGERY,2021-06-01,3.0,3,230.0,230,230.0,230,Y,Y,Min 230,POINT (-76.99554592031879 36.65318664487002)
Multitrade of Pittsylvania LP,MULTITRADE OF PITTSYLVANIA LP,114628,HURT,Hurt,24563,SUBSTATION,Substation,IN SERVICE,In service,PITTSYLVANIA,Pittsylvania,51143,VA,Virginia,USA,37.104175495,-79.276803879,221121,ELECTRIC BULK POWER TRANSMISSION AND CONTROL,"IMAGERY, EIA 860",2014-07-11,IMAGERY,2021-06-01,2.0,2,115.0,115,115.0,115,Y,Y,115 to 229,POINT (-79.27680387874402 37.1041754947224)
Waller,UNKNOWN114845,114845,WILLIAMSBURG,Williamsburg,23185,SUBSTATION,Substation,IN SERVICE,In service,YORK,York,51199,VA,Virginia,USA,37.295853357,-76.705549607,221121,ELECTRIC BULK POWER TRANSMISSION AND CONTROL,IMAGERY,2014-07-30,IMAGERY,2014-07-30,4.0,4,230.0,230,230.0,230,N,N,Min 230,POINT (-76.70554960727466 37.29585335669895)
Elizabeth River Power Station,ELIZABETH RIVER POWER STATION,115109,CHESAPEAKE,Chesapeake,23323,SUBSTATION,Substation,IN SERVICE,In service,CHESAPEAKE,Chesapeake,51550,VA,Virginia,USA,36.773745488,-76.311726046,221121,ELECTRIC BULK POWER TRANSMISSION AND CONTROL,"IMAGERY, EIA 860",2014-07-22,IMAGERY,2021-06-01,3.0,3,230.0,230,230.0,230,Y,Y,Min 230,POINT (-76.31172604603132 36.773745487974814)
Wheelabrator Portsmouth,WHEELABRATOR PORTSMOUTH,115110,PORTSMOUTH,Portsmouth,23704,SUBSTATION,Substation,IN SERVICE,In service,PORTSMOUTH,Portsmouth,51740,VA,Virginia,USA,36.809706224,-76.303660905,221121,ELECTRIC BULK POWER TRANSMISSION AND CONTROL,"IMAGERY, EIA 860",2014-07-22,IMAGERY,2021-06-01,1.0,1,115.0,115,115.0,115,Y,Y,115 to 229,POINT (-76.30366090493517 36.80970622364293)
Virginia Beach,VIRGINIA BEACH,115499,VIRGINIA BEACH,Virginia Beach,23451,SUBSTATION,Substation,IN SERVICE,In service,VIRGINIA BEACH,Virginia Beach,51810,VA,Virginia,USA,36.84999299,-76.017049771,221121,ELECTRIC BULK POWER TRANSMISSION AND CONTROL,IMAGERY,2014-07-24,IMAGERY,2020-05-01,4.0,4,230.0,230,115.0,115,Y,Y,115 to 229,POINT (-76.01704977086835 36.849992990052904)
Davis,DAVIS,115503,VIRGINIA BEACH,Virginia Beach,23462,SUBSTATION,Substation,IN SERVICE,In service,VIRGINIA BEACH,Virginia Beach,51810,VA,Virginia,USA,36.85186452,-76.175624841,221121,ELECTRIC BULK POWER TRANSMISSION AND CONTROL,IMAGERY,2014-07-24,IMAGERY,2020-05-01,5.0,5,115.0,115,-999999.0,Unknown,Y,N,Unknown,POINT (-76.17562484136327 36.85186452023121)
Burton,BURTON,115504,VIRGINIA BEACH,Virginia Beach,23455,SUBSTATION,Substation,IN SERVICE,In service,VIRGINIA BEACH,Virginia Beach,51810,VA,Virginia,USA,36.90759809,-76.172973051,221121,ELECTRIC BULK POWER TRANSMISSION AND CONTROL,"IMAGERY, https://www.dominionenergy.com/library/domcom/media/about-us/electric-projects/power-line-projects/greenwich-burton/greenwich-burton-postcard-map.pdf?la=en",2014-07-24,IMAGERY,2019-03-04,1.0,1,115.0,115,115.0,115,N,N,115 to 229,POINT (-76.17297305057716 36.90759808978361)
Nottoway Diesel Generating Facility,NOTTOWAY DIESEL GENERATING FACILITY,116252,AMELIA COURT HOUSE,Amelia Court House,23002,SUBSTATION,Substation,IN SERVICE,In service,AMELIA,Amelia,51007,VA,Virginia,USA,37.295061775,-77.98641191,221121,ELECTRIC BULK POWER TRANSMISSION AND CONTROL,"IMAGERY, EIA 860",2014-08-12,IMAGERY,2021-06-01,1.0,1,-999999.0,Unknown,-999999.0,Unknown,N,N,Unknown,POINT (-77.98641190985909 37.29506177486223)
GRS Richmond,GRS RICHMOND,116256,HENRICO,Henrico,23231,SUBSTATION,Substation,IN SERVICE,In service,HENRICO,Henrico,51087,VA,Virginia,USA,37.497050663,-77.353492109,221121,ELECTRIC BULK POWER TRANSMISSION AND CONTROL,"IMAGERY, EIA 860",2014-08-13,IMAGERY,2021-06-01,-999999.0,Unknown,-999999.0,Unknown,-999999.0,Unknown,N,N,Unknown,POINT (-77.35349210940078 37.49705066304492)
Philip Morris,PHILIP MORRIS,116257,CHESTER,Chester,23836,SUBSTATION,Substation,IN SERVICE,In service,CHESTERFIELD,Chesterfield,51041,VA,Virginia,USA,37.342236743,-77.285163388,221121,ELECTRIC BULK POWER TRANSMISSION AND CONTROL,"IMAGERY, EIA 860",2014-08-13,IMAGERY,2021-06-01,2.0,2,230.0,230,230.0,230,N,N,Min 230,POINT (-77.28516338775647 37.3422367429132)
Louisa Generation Facility,LOUISA GENERATION FACILITY,116429,GORDONSVILLE,Gordonsville,22942,SUBSTATION,Substation,IN SERVICE,In service,LOUISA,Louisa,51109,VA,Virginia,USA,38.117418903,-78.215461394,221121,ELECTRIC BULK POWER TRANSMISSION AND CONTROL,"IMAGERY, EIA 860",2014-08-15,IMAGERY,2021-06-01,3.0,3,230.0,230,230.0,230,Y,Y,Min 230,POINT (-78.21546139363144 38.11741890265482)
Gordonsville Energy LP,GORDONSVILLE ENERGY LP,116430,GORDONSVILLE,Gordonsville,22942,SUBSTATION,Substation,IN SERVICE,In service,LOUISA,Louisa,51109,VA,Virginia,USA,38.124065122,-78.204218084,221121,ELECTRIC BULK POWER TRANSMISSION AND CONTROL,"IMAGERY, EIA 860",2014-08-15,IMAGERY,2021-06-01,3.0,3,230.0,230,230.0,230,Y,Y,Min 230,POINT (-78.20421808402696 38.12406512234064)
Bremo Bluff,BREMO BLUFF,116432,BREMO BLUFF,Bremo Bluff,23022,SUBSTATION,Substation,IN SERVICE,In service,FLUVANNA,Fluvanna,51065,VA,Virginia,USA,37.709731738,-78.288448576,221121,ELECTRIC BULK POWER TRANSMISSION AND CONTROL,"IMAGERY, EIA 860",2014-08-15,IMAGERY,2021-06-01,10.0,10,230.0,230,-999999.0,Unknown,Y,Y,Unknown,POINT (-78.28844857621826 37.70973173768029)
Slabtown,SLABTOWN,116469,FREDERICKSBURG,Fredericksburg,22408,SUBSTATION,Substation,IN SERVICE,In service,SPOTSYLVANIA,Spotsylvania,51177,VA,Virginia,USA,38.224565121,-77.473778418,221121,ELECTRIC BULK POWER TRANSMISSION AND CONTROL,"IMAGERY, https://www.dominionenergy.com/library/domcom/media/about-us/electric-projects/power-line-projects/four-rivers-fredericksburg/route-map-9817.pdf?la=en",2014-08-19,IMAGERY,2019-03-06,1.0,1,115.0,115,115.0,115,Y,Y,115 to 229,POINT (-77.47377841779637 38.22456512072543)
Oak Green,UNKNOWN116482,116482,CULPEPER,Culpeper,22701,SUBSTATION,Substation,IN SERVICE,In service,ORANGE,Orange,51137,VA,Virginia,USA,38.333784005,-77.947380814,221121,ELECTRIC BULK POWER TRANSMISSION AND CONTROL,IMAGERY,2014-08-20,IMAGERY,2014-08-20,3.0,3,115.0,115,115.0,115,Y,Y,115 to 229,POINT (-77.94738081414498 38.33378400472616)
Falls Church,FALLS CHURCH,116658,ARLINGTON,Arlington,22205,SUBSTATION,Substation,IN SERVICE,In service,ARLINGTON,Arlington,51013,VA,Virginia,USA,38.885727458,-77.157697115,221121,ELECTRIC BULK POWER TRANSMISSION AND CONTROL,"IMAGERY, https://www.alexandriava.gov/uploadedFiles/special/dominion/DVP%20Presentation%2003-23-16%20230%20kV%20Update.pdf",2014-08-22,IMAGERY,2017-11-30,4.0,4,230.0,230,230.0,230,Y,Y,Min 230,POINT (-77.15769711478949 38.88572745806458)
Moore,MOORE,116659,CLIFTON,Clifton,20124,SUBSTATION,Substation,IN SERVICE,In service,FAIRFAX,Fairfax,51059,VA,Virginia,USA,38.767553956,-77.375004777,221121,ELECTRIC BULK POWER TRANSMISSION AND CONTROL,"IMAGERY, https://www.pjm.com/-/media/committees-groups/committees/teac/20181213/20181213-reliability-analysis-update.ashx",2014-08-22,IMAGERY,2019-03-14,1.0,1,230.0,230,230.0,230,N,N,Min 230,POINT (-77.37500477697529 38.76755395592107)
Possum Point,POSSUM POINT,116661,DUMFRIES,Dumfries,22026,SUBSTATION,Substation,IN SERVICE,In service,PRINCE WILLIAM,Prince William,51153,VA,Virginia,USA,38.537413602,-77.281179286,221121,ELECTRIC BULK POWER TRANSMISSION AND CONTROL,"IMAGERY, EIA 860",2014-08-22,IMAGERY,2021-06-01,7.0,7,230.0,230,115.0,115,Y,Y,115 to 229,POINT (-77.28117928580954 38.53741360197641)
Franconia,FRANCONIA,116744,SPRINGFIELD,Springfield,22150,SUBSTATION,Substation,IN SERVICE,In service,FAIRFAX,Fairfax,51059,VA,Virginia,USA,38.73904943,-77.193791114,221121,ELECTRIC BULK POWER TRANSMISSION AND CONTROL,"IMAGERY, https://www.alexandriava.gov/uploadedFiles/special/dominion/DVP%20Presentation%2003-23-16%20230%20kV%20Update.pdf",2014-08-26,IMAGERY,2017-11-30,4.0,4,230.0,230,230.0,230,Y,Y,Min 230,POINT (-77.19379111388496 38.739049430091825)
Hayfield,HAYFIELD,116745,ALEXANDRIA,Alexandria,22310,SUBSTATION,Substation,IN SERVICE,In service,FAIRFAX,Fairfax,51059,VA,Virginia,USA,38.763114803,-77.150404319,221121,ELECTRIC BULK POWER TRANSMISSION AND CONTROL,"IMAGERY, https://www.alexandriava.gov/uploadedFiles/special/dominion/DVP%20Presentation%2003-23-16%20230%20kV%20Update.pdf",2014-08-26,IMAGERY,2017-11-30,4.0,4,230.0,230,230.0,230,Y,Y,Min 230,POINT (-77.1504043191235 38.763114802996995)
Van Dorn,VAN DOM,116746,ALEXANDRIA,Alexandria,22310,SUBSTATION,Substation,IN SERVICE,In service,FAIRFAX,Fairfax,51059,VA,Virginia,USA,38.794993513,-77.149285378,221121,ELECTRIC BULK POWER TRANSMISSION AND CONTROL,"IMAGERY, https://www.alexandriava.gov/uploadedFiles/special/dominion/DVP%20Presentation%2003-23-16%20230%20kV%20Update.pdf",2014-08-26,IMAGERY,2017-11-30,2.0,2,230.0,230,230.0,230,Y,Y,Min 230,POINT (-77.14928537760558 38.79499351327416)
Viriginia Hills,VIRIGINIA HILLS,116747,ALEXANDRIA,Alexandria,22310,SUBSTATION,Substation,IN SERVICE,In service,FAIRFAX,Fairfax,51059,VA,Virginia,USA,38.784851298,-77.108494079,221121,ELECTRIC BULK POWER TRANSMISSION AND CONTROL,"IMAGERY, https://www.alexandriava.gov/uploadedFiles/special/dominion/DVP%20Presentation%2003-23-16%20230%20kV%20Update.pdf",2014-08-26,IMAGERY,2017-11-30,6.0,6,230.0,230,230.0,230,Y,Y,Min 230,POINT (-77.1084940789063 38.78485129817821)
Annandale,ANNANDALE,116752,ALEXANDRIA,Alexandria,22312,SUBSTATION,Substation,IN SERVICE,In service,FAIRFAX,Fairfax,51059,VA,Virginia,USA,38.823506477,-77.169013702,221121,ELECTRIC BULK POWER TRANSMISSION AND CONTROL,IMAGERY,2014-08-26,IMAGERY,2017-11-30,1.0,1,-999999.0,Unknown,-999999.0,Unknown,N,N,Unknown,POINT (-77.1690137017683 38.82350647731725)
Elk Run,UNKNOWN116754,116754,MIDLAND,Midland,22728,SUBSTATION,Substation,IN SERVICE,In service,FAUQUIER,Fauquier,51061,VA,Virginia,USA,38.556272745,-77.709735632,221121,ELECTRIC BULK POWER TRANSMISSION AND CONTROL,IMAGERY,2014-08-26,IMAGERY,2014-08-26,2.0,2,115.0,115,115.0,115,N,N,115 to 229,POINT (-77.70973563169326 38.556272745167774)
Arcola,ARCOLA,116769,ALDIE,Aldie,20105,SUBSTATION,Substation,IN SERVICE,In service,LOUDOUN,Loudoun,51107,VA,Virginia,USA,38.896654899,-77.5698336,221121,ELECTRIC BULK POWER TRANSMISSION AND CONTROL,"IMAGERY, https://www.dominionenergy.com/library/domcom/media/about-us/electric-projects/power-line-projects/brambleton-mosby/brambleton-mosby-aerial-map.pdf",2014-08-27,IMAGERY,2019-03-07,1.0,1,230.0,230,230.0,230,Y,Y,Min 230,POINT (-77.56983360026084 38.896654898654475)
Burke-Sideburn,BURKE-SIDEBURN,116772,FAIRFAX,Fairfax,22032,SUBSTATION,Substation,IN SERVICE,In service,FAIRFAX,Fairfax,51059,VA,Virginia,USA,38.822357296,-77.307388099,221121,ELECTRIC BULK POWER TRANSMISSION AND CONTROL,IMAGERY,2014-08-27,IMAGERY,2020-05-01,1.0,1,230.0,230,230.0,230,Y,Y,Min 230,POINT (-77.30738809865274 38.822357296174005)
Prince William Dp,PRINCE WILLIAM DP,116773,MANASSAS,Manassas,20110,SUBSTATION,Substation,IN SERVICE,In service,MANASSAS,Manassas,51683,VA,Virginia,USA,38.74964876,-77.474387456,221121,ELECTRIC BULK POWER TRANSMISSION AND CONTROL,"IMAGERY, https://www.pjm.com/-/media/committees-groups/committees/teac/20181213/20181213-reliability-analysis-update.ashx",2014-08-27,IMAGERY,2019-03-14,2.0,2,230.0,230,230.0,230,Y,Y,Min 230,POINT (-77.47438745579606 38.74964875979499)
Harrison,HARRISON,116775,CENTREVILLE,Centreville,20121,SUBSTATION,Substation,IN SERVICE,In service,FAIRFAX,Fairfax,51059,VA,Virginia,USA,38.811468825,-77.451300419,221121,ELECTRIC BULK POWER TRANSMISSION AND CONTROL,"IMAGERY, https://www.pjm.com/-/media/committees-groups/committees/teac/20181213/20181213-reliability-analysis-update.ashx",2014-08-27,IMAGERY,2019-03-14,6.0,6,115.0,115,115.0,115,Y,Y,115 to 229,POINT (-77.4513004188209 38.81146882519654)
Covanta Fairfax Energy,COVANTA FAIRFAX ENERGY,116837,LORTON,Lorton,22079,SUBSTATION,Substation,IN SERVICE,In service,FAIRFAX,Fairfax,51059,VA,Virginia,USA,38.696523675,-77.239804875,221121,ELECTRIC BULK POWER TRANSMISSION AND CONTROL,"IMAGERY, EIA 860",2014-08-28,IMAGERY,2021-06-01,2.0,2,230.0,230,230.0,230,Y,Y,Min 230,POINT (-77.23980487538799 38.69652367507878)
South Carlyle,SOUTH CARLYLE,116838,ALEXANDRIA,Alexandria,22314,SUBSTATION,Substation,IN SERVICE,In service,ALEXANDRIA,Alexandria,51510,VA,Virginia,USA,38.7991531,-77.060263081,221121,ELECTRIC BULK POWER TRANSMISSION AND CONTROL,IMAGERY,2014-08-28,IMAGERY,2017-11-30,4.0,4,230.0,230,230.0,230,Y,Y,Min 230,POINT (-77.06026308124598 38.79915310026664)
Belvoir,BELVOIR,116839,ALEXANDRIA,Alexandria,22315,SUBSTATION,Substation,IN SERVICE,In service,FAIRFAX,Fairfax,51059,VA,Virginia,USA,38.741446067,-77.134470716,221121,ELECTRIC BULK POWER TRANSMISSION AND CONTROL,"IMAGERY, https://www.alexandriava.gov/uploadedFiles/special/dominion/DVP%20Presentation%2003-23-16%20230%20kV%20Update.pdf",2014-08-28,IMAGERY,2017-11-30,4.0,4,230.0,230,230.0,230,Y,Y,Min 230,POINT (-77.13447071587609 38.74144606713094)
Dean Drive Area Electric Generators,DEAN DRIVE AREA ELECTRIC GENERATORS,116974,MANASSAS,Manassas,20110,SUBSTATION,Substation,IN SERVICE,In service,MANASSAS,Manassas,51683,VA,Virginia,USA,38.7492811,-77.502962994,221121,ELECTRIC BULK POWER TRANSMISSION AND CONTROL,"IMAGERY, EIA 860",2014-09-04,IMAGERY,2021-06-01,2.0,2,115.0,115,115.0,115,Y,Y,115 to 229,POINT (-77.5029629943413 38.74928109993351)
VMEA Peaking Gen,VMEA PEAKING GEN,116975,MANASSAS,Manassas,20110,SUBSTATION,Substation,IN SERVICE,In service,MANASSAS,Manassas,51683,VA,Virginia,USA,38.739982682,-77.50915689,221121,ELECTRIC BULK POWER TRANSMISSION AND CONTROL,"IMAGERY, EIA 860",2014-09-04,IMAGERY,2021-06-01,-999999.0,Unknown,-999999.0,Unknown,-999999.0,Unknown,N,N,Unknown,POINT (-77.50915688990342 38.73998268228522)
Cloverhill,CLOVER HILL,116997,MANASSAS,Manassas,20110,SUBSTATION,Substation,IN SERVICE,In service,PRINCE WILLIAM,Prince William,51153,VA,Virginia,USA,38.719799,-77.499632,221121,ELECTRIC BULK POWER TRANSMISSION AND CONTROL,"IMAGERY, https://www.pjm.com/-/media/committees-groups/committees/teac/20181213/20181213-reliability-analysis-update.ashx",2014-09-04,IMAGERY,2019-03-14,2.0,2,230.0,230,230.0,230,Y,Y,Min 230,POINT (-77.4996319999453 38.71979900027217)
Wheeler,WHEELER,117007,GAINESVILLE,Gainesville,20155,SUBSTATION,Substation,IN SERVICE,In service,PRINCE WILLIAM,Prince William,51153,VA,Virginia,USA,38.753080543,-77.654226516,221121,ELECTRIC BULK POWER TRANSMISSION AND CONTROL,"IMAGERY, https://www.dominionenergy.com/library/domcom/media/about-us/electric-projects/power-line-projects/warrenton-wheeler-gainesville/project-overview-map.pdf?la=en",2014-09-05,IMAGERY,2019-03-04,1.0,1,230.0,230,230.0,230,N,N,Min 230,POINT (-77.65422651594032 38.75308054279643)
Woods DP,WOODS DP,117011,MANASSAS,Manassas,20110,SUBSTATION,Substation,IN SERVICE,In service,MANASSAS,Manassas,51683,VA,Virginia,USA,38.767419337,-77.478667163,221121,ELECTRIC BULK POWER TRANSMISSION AND CONTROL,"IMAGERY, https://www.pjm.com/-/media/committees-groups/committees/teac/20181213/20181213-reliability-analysis-update.ashx",2014-09-05,IMAGERY,2019-03-14,1.0,1,115.0,115,115.0,115,Y,Y,115 to 229,POINT (-77.47866716276027 38.767419337020705)
Culpeper,UNKNOWN117015,117015,CULPEPER,Culpeper,22701,SUBSTATION,Substation,IN SERVICE,In service,CULPEPER,Culpeper,51047,VA,Virginia,USA,38.469462786,-77.993239599,221121,ELECTRIC BULK POWER TRANSMISSION AND CONTROL,IMAGERY,2014-09-08,IMAGERY,2014-09-08,1.0,1,115.0,115,115.0,115,Y,Y,115 to 229,POINT (-77.99323959919347 38.469462785896596)
Mountain Run,UNKNOWN117016,117016,CULPEPER,Culpeper,22701,SUBSTATION,Substation,IN SERVICE,In service,CULPEPER,Culpeper,51047,VA,Virginia,USA,38.462910345,-77.973976514,221121,ELECTRIC BULK POWER TRANSMISSION AND CONTROL,IMAGERY,2014-09-08,IMAGERY,2014-09-08,3.0,3,115.0,115,115.0,115,N,N,115 to 229,POINT (-77.97397651431304 38.46291034483906)
Electric Avenue Facility,ELECTRIC AVENUE FACILITY,117017,CULPEPER,Culpeper,22701,SUBSTATION,Substation,IN SERVICE,In service,CULPEPER,Culpeper,51047,VA,Virginia,USA,38.469340363,-77.989261458,221121,ELECTRIC BULK POWER TRANSMISSION AND CONTROL,"IMAGERY, EIA 860",2014-09-08,IMAGERY,2021-06-01,1.0,1,115.0,115,115.0,115,Y,Y,115 to 229,POINT (-77.98926145756847 38.469340363320406)
Coal Creek,COAL CREEK,117031,RAVEN,Raven,24639,SUBSTATION,Substation,IN SERVICE,In service,TAZEWELL,Tazewell,51185,VA,Virginia,USA,37.116324582,-81.870200702,221121,ELECTRIC BULK POWER TRANSMISSION AND CONTROL,"IMAGERY, https://aeptransmission.com/virginia/Tazewell-Bearwallow/docs/VOLUME%201%20(Exhibits%206%20through%2013).pdf",2014-09-10,IMAGERY,2019-02-06,2.0,2,69.0,69,69.0,69,N,N,69 to 114,POINT (-81.87020070209209 37.11632458208939)
Knox Coal Creek,KNOX COAL CREEK,117032,RAVEN,Raven,24639,SUBSTATION,Substation,IN SERVICE,In service,TAZEWELL,Tazewell,51185,VA,Virginia,USA,37.14924145,-81.898242253,221121,ELECTRIC BULK POWER TRANSMISSION AND CONTROL,"IMAGERY, https://aeptransmission.com/virginia/Tazewell-Bearwallow/docs/VOLUME%201%20(Exhibits%206%20through%2013).pdf",2014-09-10,IMAGERY,2019-02-06,2.0,2,69.0,69,69.0,69,N,N,69 to 114,POINT (-81.89824225328637 37.149241449766556)
Hurley,HURLEY,117033,HURLEY,Hurley,24620,SUBSTATION,Substation,IN SERVICE,In service,BUCHANAN,Buchanan,51027,VA,Virginia,USA,37.422308762,-82.021236053,221121,ELECTRIC BULK POWER TRANSMISSION AND CONTROL,"IMAGERY, https://aeptransmission.com/virginia/Tazewell-Bearwallow/docs/VOLUME%201%20(Exhibits%206%20through%2013).pdf",2014-09-10,IMAGERY,2019-02-06,1.0,1,69.0,69,69.0,69,N,N,69 to 114,POINT (-82.02123605340556 37.42230876180979)
Knotty Poplar,KNOTTY POPLAR,117034,GRUNDY,Grundy,24614,SUBSTATION,Substation,IN SERVICE,In service,BUCHANAN,Buchanan,51027,VA,Virginia,USA,37.267609842,-82.149240342,221121,ELECTRIC BULK POWER TRANSMISSION AND CONTROL,"IMAGERY, https://aeptransmission.com/virginia/Tazewell-Bearwallow/docs/VOLUME%201%20(Exhibits%206%20through%2013).pdf",2014-09-10,IMAGERY,2019-02-06,2.0,2,69.0,69,69.0,69,N,N,69 to 114,POINT (-82.14924034176926 37.267609842236105)
Skaggs Branch,SKAGGS BRANCH,117035,OAKWOOD,Oakwood,24631,SUBSTATION,Substation,IN SERVICE,In service,BUCHANAN,Buchanan,51027,VA,Virginia,USA,37.176747617,-82.03274296,221121,ELECTRIC BULK POWER TRANSMISSION AND CONTROL,"IMAGERY, https://aeptransmission.com/virginia/Tazewell-Bearwallow/docs/VOLUME%201%20(Exhibits%206%20through%2013).pdf",2014-09-10,IMAGERY,2019-02-06,2.0,2,138.0,138,69.0,69,Y,N,69 to 114,POINT (-82.03274296015543 37.17674761723737)
Garden Creek,GARDEN CREEK,117036,OAKWOOD,Oakwood,24631,SUBSTATION,Substation,IN SERVICE,In service,BUCHANAN,Buchanan,51027,VA,Virginia,USA,37.206534329,-82.008705169,221121,ELECTRIC BULK POWER TRANSMISSION AND CONTROL,"IMAGERY, https://aeptransmission.com/virginia/Tazewell-Bearwallow/docs/VOLUME%201%20(Exhibits%206%20through%2013).pdf",2014-09-10,IMAGERY,2019-02-06,3.0,3,138.0,138,69.0,69,Y,N,69 to 114,POINT (-82.00870516874144 37.206534328881816)
Haysi,HAYSI,117043,HAYSI,Haysi,24256,SUBSTATION,Substation,IN SERVICE,In service,DICKENSON,Dickenson,51051,VA,Virginia,USA,37.208578632,-82.30075678,221121,ELECTRIC BULK POWER TRANSMISSION AND CONTROL,"IMAGERY, https://aeptransmission.com/virginia/Tazewell-Bearwallow/docs/VOLUME%201%20(Exhibits%206%20through%2013).pdf",2014-09-10,IMAGERY,2019-02-06,3.0,3,69.0,69,69.0,69,N,N,69 to 114,POINT (-82.30075678044324 37.208578631651676)
Red Oak (AP),RED OAK (AP),117044,JEWELL RIDGE,Jewell Ridge,24622,SUBSTATION,Substation,IN SERVICE,In service,TAZEWELL,Tazewell,51185,VA,Virginia,USA,37.212171842,-81.752377755,221121,ELECTRIC BULK POWER TRANSMISSION AND CONTROL,"IMAGERY, https://aeptransmission.com/virginia/Tazewell-Bearwallow/docs/VOLUME%201%20(Exhibits%206%20through%2013).pdf",2014-09-11,IMAGERY,2019-02-06,1.0,1,69.0,69,69.0,69,N,N,69 to 114,POINT (-81.75237775476693 37.21217184205445)
Bearwallow,BEARWALLOW,117045,WAR,War,24622,SUBSTATION,Substation,IN SERVICE,In service,TAZEWELL,Tazewell,51185,VA,Virginia,USA,37.239535951,-81.727780394,221121,ELECTRIC BULK POWER TRANSMISSION AND CONTROL,"IMAGERY, https://aeptransmission.com/virginia/Tazewell-Bearwallow/docs/Tazwell%20Bearwallow%20fact%20sheet.pdf#view=Fit",2014-09-11,IMAGERY,2019-02-06,4.0,4,138.0,138,-999999.0,Unknown,Y,Y,Unknown,POINT (-81.7277803937793 37.239535950736915)
Byllesby 2,BYLLESBY 2,117062,IVANHOE,Ivanhoe,24350,SUBSTATION,Substation,IN SERVICE,In service,CARROLL,Carroll,51035,VA,Virginia,USA,36.784485506,-80.935303485,221121,ELECTRIC BULK POWER TRANSMISSION AND CONTROL,"IMAGERY, EIA 860",2014-09-15,IMAGERY,2021-06-01,6.0,6,138.0,138,-999999.0,Unknown,Y,Y,Unknown,POINT (-80.93530348455748 36.784485505791785)
Claytor,CLAYTOR,121138,RADFORD,Radford,24141,SUBSTATION,Substation,IN SERVICE,In service,PULASKI,Pulaski,51155,VA,Virginia,USA,37.074673638,-80.584123922,221121,ELECTRIC BULK POWER TRANSMISSION AND CONTROL,"IMAGERY, EIA 860",2015-03-04,IMAGERY,2021-06-01,2.0,2,-999999.0,Unknown,-999999.0,Unknown,N,N,Unknown,POINT (-80.58412392182846 37.074673637710546)
Buck Hydro,BUCK HYDRO,121139,IVANHOE,Ivanhoe,24350,SUBSTATION,Substation,IN SERVICE,In service,CARROLL,Carroll,51035,VA,Virginia,USA,36.808098182,-80.938726815,221121,ELECTRIC BULK POWER TRANSMISSION AND CONTROL,"IMAGERY, EIA 860",2015-03-04,IMAGERY,2021-06-01,2.0,2,-999999.0,Unknown,-999999.0,Unknown,N,N,Unknown,POINT (-80.93872681498493 36.808098181895815)
Virginia Tech Power Plant,VIRGINIA TECH POWER PLANT,121143,BLACKSBURG,Blacksburg,24060,SUBSTATION,Substation,IN SERVICE,In service,MONTGOMERY,Montgomery,51121,VA,Virginia,USA,37.23264985,-80.421638238,221121,ELECTRIC BULK POWER TRANSMISSION AND CONTROL,"IMAGERY, EIA 860",2015-03-05,IMAGERY,2021-06-01,2.0,2,-999999.0,Unknown,-999999.0,Unknown,Y,Y,Unknown,POINT (-80.42163823786507 37.232649849910636)
Salem Electric Department,SALEM ELECTRIC DEPARTMENT,121151,SALEM,Salem,24153,SUBSTATION,Substation,IN SERVICE,In service,SALEM,Salem,51775,VA,Virginia,USA,37.289767162,-80.070328837,221121,ELECTRIC BULK POWER TRANSMISSION AND CONTROL,"IMAGERY, EIA 860",2015-03-05,IMAGERY,2021-06-01,2.0,2,-999999.0,Unknown,-999999.0,Unknown,Y,Y,Unknown,POINT (-80.07032883713646 37.28976716209551)
Covington,COVINGTON,121373,COVINGTON,Covington,24426,SUBSTATION,Substation,IN SERVICE,In service,COVINGTON,Covington,51580,VA,Virginia,USA,37.769319968,-79.985999933,221121,ELECTRIC BULK POWER TRANSMISSION AND CONTROL,"IMAGERY, https://www.dominionenergy.com/library/domcom/media/about-us/electric-projects/power-line-projects/low-moor/lowmoor-project-simulations.pdf?la=en",2015-03-11,IMAGERY,2019-03-04,4.0,4,138.0,138,138.0,138,N,N,115 to 229,POINT (-79.98599993270916 37.76931996776167)
Altavista Power Station,ALTAVISTA POWER STATION,121378,ALTAVISTA,Altavista,24517,SUBSTATION,Substation,IN SERVICE,In service,CAMPBELL,Campbell,51031,VA,Virginia,USA,37.117765834,-79.275970026,221121,ELECTRIC BULK POWER TRANSMISSION AND CONTROL,"IMAGERY, EIA 860",2015-03-12,IMAGERY,2021-06-01,5.0,5,115.0,115,115.0,115,Y,Y,115 to 229,POINT (-79.27597002566638 37.11776583417528)
Reusens,REUSENS,121384,LYNCHBURG,Lynchburg,24503,SUBSTATION,Substation,IN SERVICE,In service,LYNCHBURG,Lynchburg,51680,VA,Virginia,USA,37.462495423,-79.187126136,221121,ELECTRIC BULK POWER TRANSMISSION AND CONTROL,"IMAGERY, EIA 860",2015-03-12,IMAGERY,2021-06-01,2.0,2,-999999.0,Unknown,-999999.0,Unknown,N,N,Unknown,POINT (-79.18712613562052 37.4624954228872)
Rockbridge,ROCKBRIDGE,121387,LEXINGTON,Lexington,24450,SUBSTATION,Substation,IN SERVICE,In service,ROCKBRIDGE,Rockbridge,51163,VA,Virginia,USA,37.798442484,-79.415567159,221121,ELECTRIC BULK POWER TRANSMISSION AND CONTROL,"IMAGERY, https://www.pjm.com/-/media/committees-groups/committees/teac/20180712/20180712-teac-reliability-analysis-update.ashx",2015-03-12,IMAGERY,2019-03-14,1.0,1,115.0,115,115.0,115,Y,Y,115 to 229,POINT (-79.41556715900987 37.798442483882035)
Buena Vista,BUENA VISTA,121388,BUENA VISTA,Buena Vista,24416,SUBSTATION,Substation,IN SERVICE,In service,BUENA VISTA,Buena Vista,51530,VA,Virginia,USA,37.732228716,-79.356736722,221121,ELECTRIC BULK POWER TRANSMISSION AND CONTROL,"IMAGERY, https://www.pjm.com/-/media/committees-groups/committees/teac/20180712/20180712-teac-reliability-analysis-update.ashx",2015-03-12,IMAGERY,2019-03-14,3.0,3,115.0,115,-999999.0,Unknown,Y,N,Unknown,POINT (-79.35673672191993 37.73222871601591)
Snowden,SNOWDEN,121389,BIG ISLAND,Big Island,24526,SUBSTATION,Substation,IN SERVICE,In service,AMHERST,Amherst,51009,VA,Virginia,USA,37.573580823,-79.370894373,221121,ELECTRIC BULK POWER TRANSMISSION AND CONTROL,"IMAGERY, EIA 860",2015-03-12,IMAGERY,2021-06-01,2.0,2,-999999.0,Unknown,-999999.0,Unknown,Y,Y,Unknown,POINT (-79.37089437291858 37.57358082315281)
Bath County,BATH COUNTY,121435,CRAIGSVILLE,Craigsville,24430,SUBSTATION,Substation,IN SERVICE,In service,BATH,Bath,51017,VA,Virginia,USA,38.209086305,-79.800184408,221121,ELECTRIC BULK POWER TRANSMISSION AND CONTROL,"IMAGERY, https://www.pjm.com/-/media/committees-groups/committees/teac/20180712/20180712-teac-reliability-analysis-update.ashx",2015-03-13,IMAGERY,2019-03-14,3.0,3,500.0,500,500.0,500,Y,Y,Min 230,POINT (-79.80018440792912 38.20908630528673)
Stuarts Draft,STUARTS DRAFT,121439,STUARTS DRAFT,Stuarts Draft,24477,SUBSTATION,Substation,IN SERVICE,In service,AUGUSTA,Augusta,51015,VA,Virginia,USA,38.024517374,-79.047803271,221121,ELECTRIC BULK POWER TRANSMISSION AND CONTROL,"IMAGERY, https://www.pjm.com/-/media/committees-groups/committees/teac/20180712/20180712-teac-reliability-analysis-update.ashx, EIA 861",2015-03-16,IMAGERY,2019-03-14,2.0,2,115.0,115,115.0,115,N,N,115 to 229,POINT (-79.04780327140796 38.02451737379093)
Crozet,CROZET,121444,CROZET,Crozet,22932,SUBSTATION,Substation,IN SERVICE,In service,ALBEMARLE,Albemarle,51003,VA,Virginia,USA,38.084710389,-78.698540228,221121,ELECTRIC BULK POWER TRANSMISSION AND CONTROL,IMAGERY,2015-03-16,IMAGERY,2017-10-16,2.0,2,230.0,230,230.0,230,Y,Y,Min 230,POINT (-78.698540228405 38.08471038880655)
Barracks Road,BARRACKS ROAD,121445,CHARLOTTESVILLE,Charlottesville,22901,SUBSTATION,Substation,IN SERVICE,In service,ALBEMARLE,Albemarle,51003,VA,Virginia,USA,38.071634537,-78.530511575,221121,ELECTRIC BULK POWER TRANSMISSION AND CONTROL,IMAGERY,2015-03-16,IMAGERY,2017-10-16,2.0,2,230.0,230,230.0,230,Y,Y,Min 230,POINT (-78.5305115753209 38.07163453677366)
Monterey Diesel Generation Facility,MONTEREY DIESEL GENERATION FACILITY,121448,MONTEREY,Monterey,24465,SUBSTATION,Substation,IN SERVICE,In service,HIGHLAND,Highland,51091,VA,Virginia,USA,38.421435516,-79.591377703,221121,ELECTRIC BULK POWER TRANSMISSION AND CONTROL,"IMAGERY, EIA 860",2015-03-16,IMAGERY,2021-06-01,1.0,1,-999999.0,Unknown,-999999.0,Unknown,Y,Y,Unknown,POINT (-79.59137770270293 38.42143551627961)
Cash's Corner,UNKNOWN121546,121546,GORDONSVILLE,Gordonsville,22942,SUBSTATION,Substation,IN SERVICE,In service,ALBEMARLE,Albemarle,51003,VA,Virginia,USA,38.103839977,-78.263454102,221121,ELECTRIC BULK POWER TRANSMISSION AND CONTROL,IMAGERY,2015-03-17,IMAGERY,2015-03-17,3.0,3,230.0,230,-999999.0,Unknown,N,N,Unknown,POINT (-78.26345410238288 38.10383997703085)
Mount Clinton,MOUNT CLINTON,121564,HARRISONBURG,Harrisonburg,22802,SUBSTATION,Substation,IN SERVICE,In service,HARRISONBURG,Harrisonburg,51660,VA,Virginia,USA,38.468276922,-78.864404996,221121,ELECTRIC BULK POWER TRANSMISSION AND CONTROL,"IMAGERY, EIA 860",2015-03-18,IMAGERY,2021-06-01,3.0,3,-999999.0,Unknown,-999999.0,Unknown,Y,Y,Unknown,POINT (-78.86440499627649 38.46827692212086)
Pleasant Valley (VA),PLEASANT VALLEY (VA),121572,HARRISONBURG,Harrisonburg,22801,SUBSTATION,Substation,IN SERVICE,In service,HARRISONBURG,Harrisonburg,51660,VA,Virginia,USA,38.401011472,-78.897919842,221121,ELECTRIC BULK POWER TRANSMISSION AND CONTROL,"IMAGERY, EIA 860",2015-03-18,IMAGERY,2021-06-01,2.0,2,-999999.0,Unknown,-999999.0,Unknown,N,N,Unknown,POINT (-78.89791984235971 38.401011472232945)
Commonwealth Chesapeake,COMMONWEALTH CHESAPEAKE,121577,NEW CHURCH,New Church,23415,SUBSTATION,Substation,IN SERVICE,In service,ACCOMACK,Accomack,51001,VA,Virginia,USA,37.988670013,-75.539675579,221121,ELECTRIC BULK POWER TRANSMISSION AND CONTROL,"IMAGERY, EIA 860",2015-03-18,IMAGERY,2021-06-01,4.0,4,138.0,138,69.0,69,Y,N,69 to 114,POINT (-75.53967557861046 37.98867001290523)
Tasley,TASLEY,121578,ONLEY,Onley,23418,SUBSTATION,Substation,IN SERVICE,In service,ACCOMACK,Accomack,51001,VA,Virginia,USA,37.706035582,-75.702765621,221121,ELECTRIC BULK POWER TRANSMISSION AND CONTROL,"IMAGERY, EIA 860",2015-03-18,IMAGERY,2021-06-01,4.0,4,69.0,69,69.0,69,Y,Y,69 to 114,POINT (-75.70276562124921 37.70603558182853)
Bayview,BAYVIEW,121581,CAPE CHARLES,Cape Charles,23310,SUBSTATION,Substation,IN SERVICE,In service,NORTHAMPTON,Northampton,51131,VA,Virginia,USA,37.27162161,-75.967843764,221121,ELECTRIC BULK POWER TRANSMISSION AND CONTROL,"IMAGERY, EIA 860",2015-03-18,IMAGERY,2021-06-01,2.0,2,69.0,69,69.0,69,Y,Y,69 to 114,POINT (-75.96784376425651 37.271621609644654)
Perdue Diesel Generation Facility,PERDUE DIESEL GENERATION FACILITY,121584,ACCOMAC,Accomac,23301,SUBSTATION,Substation,IN SERVICE,In service,ACCOMACK,Accomack,51001,VA,Virginia,USA,37.741891814,-75.655768391,221121,ELECTRIC BULK POWER TRANSMISSION AND CONTROL,"IMAGERY, EIA 860",2015-03-18,IMAGERY,2021-06-01,1.0,1,69.0,69,69.0,69,Y,Y,69 to 114,POINT (-75.65576839135967 37.741891813682955)
Belle Haven Diesel Generation Facility,BELLE HAVEN DIESEL GENERATION FACILITY,121587,PAINTER,Painter,23420,SUBSTATION,Substation,IN SERVICE,In service,ACCOMACK,Accomack,51001,VA,Virginia,USA,37.548461859,-75.790834529,221121,ELECTRIC BULK POWER TRANSMISSION AND CONTROL,"IMAGERY, EIA 860",2015-03-18,IMAGERY,2021-06-01,1.0,1,69.0,69,69.0,69,N,N,69 to 114,POINT (-75.79083452930959 37.54846185919899)
Tangier,TANGIER,121588,TANGIER,Tangier,23440,SUBSTATION,Substation,IN SERVICE,In service,ACCOMACK,Accomack,51001,VA,Virginia,USA,37.827690906,-75.9915459,221121,ELECTRIC BULK POWER TRANSMISSION AND CONTROL,"IMAGERY, EIA 860",2015-03-18,IMAGERY,2021-06-01,1.0,1,-999999.0,Unknown,-999999.0,Unknown,N,N,Unknown,POINT (-75.9915459001646 37.827690906270774)
Pinnacles,PINNACLES,133866,ARARAT,Ararat,24053,SUBSTATION,Substation,IN SERVICE,In service,PATRICK,Patrick,51141,VA,Virginia,USA,36.666909699,-80.447993702,221121,ELECTRIC BULK POWER TRANSMISSION AND CONTROL,"IMAGERY, EIA 860",2016-01-06,IMAGERY,2021-06-01,2.0,2,69.0,69,69.0,69,Y,Y,69 to 114,POINT (-80.4479937015767 36.66690969916767)
Tap138723,TAP138723,138723,ROCKBRIDGE BATHS,Rockbridge Baths,24473,TAP,Tap,IN SERVICE,In service,ROCKBRIDGE,Rockbridge,51163,VA,Virginia,USA,37.90214406,-79.385927227,221121,ELECTRIC BULK POWER TRANSMISSION AND CONTROL,IMAGERY,2015-03-13,IMAGERY/OTHER,2015-08-14,3.0,3,115.0,115,115.0,115,N,N,115 to 229,POINT (-79.38592722734575 37.90214406035397)
Tap139186,TAP139186,139186,MONTPELIER,Montpelier,23192,TAP,Tap,IN SERVICE,In service,LOUISA,Louisa,51109,VA,Virginia,USA,37.875159089,-77.744940674,221121,ELECTRIC BULK POWER TRANSMISSION AND CONTROL,IMAGERY,2014-08-18,IMAGERY/OTHER,2015-08-14,3.0,3,-999999.0,Unknown,-999999.0,Unknown,Y,Y,Unknown,POINT (-77.74494067415321 37.87515908899926)
Tap139187,TAP139187,139187,FREDERICKSBURG,Fredericksburg,22408,TAP,Tap,IN SERVICE,In service,SPOTSYLVANIA,Spotsylvania,51177,VA,Virginia,USA,38.224670244,-77.473518109,221121,ELECTRIC BULK POWER TRANSMISSION AND CONTROL,IMAGERY,2014-08-19,IMAGERY/OTHER,2015-08-14,3.0,3,115.0,115,115.0,115,Y,Y,115 to 229,POINT (-77.47351810938322 38.22467024377022)
Tap139188,TAP139188,139188,STAFFORD,Stafford,22554,TAP,Tap,IN SERVICE,In service,STAFFORD,Stafford,51179,VA,Virginia,USA,38.445832936,-77.389079109,221121,ELECTRIC BULK POWER TRANSMISSION AND CONTROL,IMAGERY,2014-08-19,IMAGERY/OTHER,2015-08-14,3.0,3,230.0,230,230.0,230,Y,Y,Min 230,POINT (-77.38907910923135 38.44583293574903)
Tap139189,TAP139189,139189,WOODFORD,Woodford,22580,TAP,Tap,IN SERVICE,In service,CAROLINE,Caroline,51033,VA,Virginia,USA,38.091563193,-77.437591645,221121,ELECTRIC BULK POWER TRANSMISSION AND CONTROL,IMAGERY,2014-08-19,IMAGERY/OTHER,2015-08-14,3.0,3,115.0,115,115.0,115,Y,Y,115 to 229,POINT (-77.43759164518993 38.09156319293115)
Tap139190,TAP139190,139190,RUTHER GLEN,Ruther Glen,22546,TAP,Tap,IN SERVICE,In service,CAROLINE,Caroline,51033,VA,Virginia,USA,38.011494409,-77.510245144,221121,ELECTRIC BULK POWER TRANSMISSION AND CONTROL,IMAGERY,2014-08-19,IMAGERY/OTHER,2015-08-14,3.0,3,115.0,115,115.0,115,Y,Y,115 to 229,POINT (-77.5102451440729 38.01149440875713)
Tap139191,TAP139191,139191,SPOTSYLVANIA,Spotsylvania,22551,TAP,Tap,IN SERVICE,In service,SPOTSYLVANIA,Spotsylvania,51177,VA,Virginia,USA,38.237798865,-77.782649585,221121,ELECTRIC BULK POWER TRANSMISSION AND CONTROL,IMAGERY,2014-08-20,IMAGERY/OTHER,2015-08-14,3.0,3,115.0,115,115.0,115,Y,Y,115 to 229,POINT (-77.78264958541473 38.23779886477881)
Tap139192,TAP139192,139192,WOODFORD,Woodford,22580,TAP,Tap,IN SERVICE,In service,CAROLINE,Caroline,51033,VA,Virginia,USA,38.067097562,-77.517262744,221121,ELECTRIC BULK POWER TRANSMISSION AND CONTROL,IMAGERY,2014-08-20,IMAGERY/OTHER,2015-08-14,3.0,3,115.0,115,115.0,115,Y,Y,115 to 229,POINT (-77.51726274444486 38.06709756164667)
Tap139193,TAP139193,139193,DOSWELL,Doswell,23047,TAP,Tap,IN SERVICE,In service,HANOVER,Hanover,51085,VA,Virginia,USA,37.846500831,-77.441217298,221121,ELECTRIC BULK POWER TRANSMISSION AND CONTROL,IMAGERY,2014-08-14,IMAGERY/OTHER,2015-08-14,3.0,3,115.0,115,115.0,115,Y,Y,115 to 229,POINT (-77.44121729777893 37.84650083107565)
Tap139194,TAP139194,139194,CATLETT,Catlett,20119,TAP,Tap,IN SERVICE,In service,FAUQUIER,Fauquier,51061,VA,Virginia,USA,38.590294109,-77.577160181,221121,ELECTRIC BULK POWER TRANSMISSION AND CONTROL,IMAGERY,2014-08-21,IMAGERY/OTHER,2015-08-14,3.0,3,115.0,115,115.0,115,Y,Y,115 to 229,POINT (-77.57716018066637 38.590294109343134)
Tap139195,TAP139195,139195,CLIFTON,Clifton,20124,TAP,Tap,IN SERVICE,In service,FAIRFAX,Fairfax,51059,VA,Virginia,USA,38.76741469,-77.376178049,221121,ELECTRIC BULK POWER TRANSMISSION AND CONTROL,IMAGERY,2014-08-22,IMAGERY/OTHER,2015-08-14,3.0,3,230.0,230,230.0,230,Y,Y,Min 230,POINT (-77.37617804860159 38.767414689792446)
Tap139196,TAP139196,139196,WOODBRIDGE,Woodbridge,22192,TAP,Tap,IN SERVICE,In service,PRINCE WILLIAM,Prince William,51153,VA,Virginia,USA,38.641571089,-77.301799915,221121,ELECTRIC BULK POWER TRANSMISSION AND CONTROL,IMAGERY,2014-08-22,IMAGERY/OTHER,2015-08-14,3.0,3,115.0,115,115.0,115,Y,Y,115 to 229,POINT (-77.30179991462883 38.64157108889986)
Tap139197,TAP139197,139197,WOODBRIDGE,Woodbridge,22192,TAP,Tap,IN SERVICE,In service,PRINCE WILLIAM,Prince William,51153,VA,Virginia,USA,38.64141928,-77.301783259,221121,ELECTRIC BULK POWER TRANSMISSION AND CONTROL,IMAGERY,2014-08-22,IMAGERY/OTHER,2015-08-14,3.0,3,115.0,115,115.0,115,Y,Y,115 to 229,POINT (-77.30178325896516 38.641419280131444)
Tap139198,TAP139198,139198,WOODBRIDGE,Woodbridge,22193,TAP,Tap,IN SERVICE,In service,PRINCE WILLIAM,Prince William,51153,VA,Virginia,USA,38.609045842,-77.319516621,221121,ELECTRIC BULK POWER TRANSMISSION AND CONTROL,IMAGERY,2014-08-22,IMAGERY/OTHER,2015-08-14,3.0,3,115.0,115,115.0,115,Y,Y,115 to 229,POINT (-77.31951662071458 38.609045842001336)
Tap139199,TAP139199,139199,WOODBRIDGE,Woodbridge,22193,TAP,Tap,IN SERVICE,In service,PRINCE WILLIAM,Prince William,51153,VA,Virginia,USA,38.609102341,-77.319332978,221121,ELECTRIC BULK POWER TRANSMISSION AND CONTROL,IMAGERY,2014-08-22,IMAGERY/OTHER,2015-08-14,3.0,3,115.0,115,115.0,115,Y,Y,115 to 229,POINT (-77.31933297812104 38.60910234089874)
Tap139200,TAP139200,139200,WOODBRIDGE,Woodbridge,22193,TAP,Tap,IN SERVICE,In service,PRINCE WILLIAM,Prince William,51153,VA,Virginia,USA,38.626610701,-77.308929398,221121,ELECTRIC BULK POWER TRANSMISSION AND CONTROL,IMAGERY,2014-08-22,IMAGERY/OTHER,2015-08-14,3.0,3,115.0,115,115.0,115,Y,Y,115 to 229,POINT (-77.30892939837283 38.626610701175956)
Tap139201,TAP139201,139201,WOODBRIDGE,Woodbridge,22193,TAP,Tap,IN SERVICE,In service,PRINCE WILLIAM,Prince William,51153,VA,Virginia,USA,38.626460309,-77.308893456,221121,ELECTRIC BULK POWER TRANSMISSION AND CONTROL,IMAGERY,2014-08-22,IMAGERY/OTHER,2015-08-14,3.0,3,115.0,115,115.0,115,Y,Y,115 to 229,POINT (-77.30889345588 38.62646030922319)
Tap139202,TAP139202,139202,WOODBRIDGE,Woodbridge,22193,TAP,Tap,IN SERVICE,In service,PRINCE WILLIAM,Prince William,51153,VA,Virginia,USA,38.626713195,-77.310127945,221121,ELECTRIC BULK POWER TRANSMISSION AND CONTROL,IMAGERY,2014-08-22,IMAGERY/OTHER,2015-08-14,3.0,3,115.0,115,115.0,115,Y,Y,115 to 229,POINT (-77.31012794499793 38.62671319493189)
Tap139203,TAP139203,139203,TRIANGLE,Triangle,22172,TAP,Tap,IN SERVICE,In service,PRINCE WILLIAM,Prince William,51153,VA,Virginia,USA,38.532517238,-77.323875966,221121,ELECTRIC BULK POWER TRANSMISSION AND CONTROL,IMAGERY,2014-08-26,IMAGERY/OTHER,2015-08-14,3.0,3,115.0,115,115.0,115,Y,Y,115 to 229,POINT (-77.32387596602366 38.532517237738496)
Tap139204,TAP139204,139204,DUMFRIES,Dumfries,22026,TAP,Tap,IN SERVICE,In service,PRINCE WILLIAM,Prince William,51153,VA,Virginia,USA,38.586527523,-77.306607343,221121,ELECTRIC BULK POWER TRANSMISSION AND CONTROL,IMAGERY,2014-08-26,IMAGERY/OTHER,2015-08-14,3.0,3,230.0,230,230.0,230,Y,Y,Min 230,POINT (-77.3066073431949 38.586527522850176)
Tap139205,TAP139205,139205,WOODBRIDGE,Woodbridge,22193,TAP,Tap,IN SERVICE,In service,PRINCE WILLIAM,Prince William,51153,VA,Virginia,USA,38.646074318,-77.369772211,221121,ELECTRIC BULK POWER TRANSMISSION AND CONTROL,IMAGERY,2014-08-26,IMAGERY/OTHER,2015-08-14,3.0,3,115.0,115,115.0,115,Y,Y,115 to 229,POINT (-77.36977221081955 38.64607431813408)
Tap139206,TAP139206,139206,WOODBRIDGE,Woodbridge,22193,TAP,Tap,IN SERVICE,In service,PRINCE WILLIAM,Prince William,51153,VA,Virginia,USA,38.652951833,-77.348655229,221121,ELECTRIC BULK POWER TRANSMISSION AND CONTROL,IMAGERY,2014-08-26,IMAGERY/OTHER,2015-08-14,3.0,3,115.0,115,115.0,115,Y,Y,115 to 229,POINT (-77.3486552286698 38.652951832692274)
Tap139207,TAP139207,139207,NOKESVILLE,Nokesville,20181,TAP,Tap,IN SERVICE,In service,PRINCE WILLIAM,Prince William,51153,VA,Virginia,USA,38.631657787,-77.461010308,221121,ELECTRIC BULK POWER TRANSMISSION AND CONTROL,IMAGERY,2014-08-26,IMAGERY/OTHER,2015-08-14,3.0,3,115.0,115,115.0,115,Y,Y,115 to 229,POINT (-77.46101030782864 38.631657787048916)
Tap139208,TAP139208,139208,CENTREVILLE,Centreville,20120,TAP,Tap,IN SERVICE,In service,FAIRFAX,Fairfax,51059,VA,Virginia,USA,38.875625004,-77.47101473,221121,ELECTRIC BULK POWER TRANSMISSION AND CONTROL,IMAGERY,2014-08-26,IMAGERY/OTHER,2015-08-14,3.0,3,230.0,230,230.0,230,Y,Y,Min 230,POINT (-77.47101473016353 38.87562500371661)
Tap139209,TAP139209,139209,CENTREVILLE,Centreville,20120,TAP,Tap,IN SERVICE,In service,FAIRFAX,Fairfax,51059,VA,Virginia,USA,38.858374161,-77.50916821,221121,ELECTRIC BULK POWER TRANSMISSION AND CONTROL,"IMAGERY, https://www.dominionenergy.com/library/domcom/media/about-us/electric-projects/power-line-projects/elklick/elklick-community-mailer-5-9-16.pdf?la=en",2014-08-26,IMAGERY/OTHER,2019-03-04,3.0,3,230.0,230,230.0,230,N,N,Min 230,POINT (-77.50916820957431 38.85837416065674)
Tap139210,TAP139210,139210,CHURCH HILL,Church Hill,37642,TAP,Tap,IN SERVICE,In service,FAIRFAX,Fairfax,51059,VA,Virginia,USA,38.854216398,-77.502142244,221121,ELECTRIC BULK POWER TRANSMISSION AND CONTROL,IMAGERY,2014-08-27,IMAGERY/OTHER,2015-08-14,3.0,3,230.0,230,230.0,230,Y,Y,Min 230,POINT (-77.5021422440904 38.85421639823076)
Tap139211,TAP139211,139211,CENTREVILLE,Centreville,20120,TAP,Tap,IN SERVICE,In service,FAIRFAX,Fairfax,51059,VA,Virginia,USA,38.831980078,-77.4667542,221121,ELECTRIC BULK POWER TRANSMISSION AND CONTROL,IMAGERY,2014-08-27,IMAGERY/OTHER,2015-08-14,3.0,3,230.0,230,230.0,230,Y,Y,Min 230,POINT (-77.466754200434 38.8319800778524)
Tap139212,TAP139212,139212,CENTREVILLE,Centreville,20121,TAP,Tap,IN SERVICE,In service,FAIRFAX,Fairfax,51059,VA,Virginia,USA,38.811531488,-77.436115436,221121,ELECTRIC BULK POWER TRANSMISSION AND CONTROL,IMAGERY,2014-08-27,IMAGERY/OTHER,2015-08-14,3.0,3,230.0,230,230.0,230,Y,Y,Min 230,POINT (-77.43611543559872 38.81153148794592)
Tap139213,TAP139213,139213,CENTREVILLE,Centreville,20121,TAP,Tap,IN SERVICE,In service,FAIRFAX,Fairfax,51059,VA,Virginia,USA,38.811506742,-77.436046908,221121,ELECTRIC BULK POWER TRANSMISSION AND CONTROL,IMAGERY,2014-08-27,IMAGERY/OTHER,2015-08-14,3.0,3,230.0,230,230.0,230,Y,Y,Min 230,POINT (-77.43604690761725 38.8115067423228)
Tap139216,TAP139216,139216,MANASSAS,Manassas,20110,TAP,Tap,IN SERVICE,In service,MANASSAS,Manassas,51683,VA,Virginia,USA,38.746488868,-77.506781863,221121,ELECTRIC BULK POWER TRANSMISSION AND CONTROL,IMAGERY,2014-09-04,IMAGERY/OTHER,2015-08-14,3.0,3,115.0,115,115.0,115,Y,Y,115 to 229,POINT (-77.50678186286983 38.74648886806876)
Tap139217,TAP139217,139217,MANASSAS,Manassas,20110,TAP,Tap,IN SERVICE,In service,MANASSAS,Manassas,51683,VA,Virginia,USA,38.746876816,-77.510062415,221121,ELECTRIC BULK POWER TRANSMISSION AND CONTROL,IMAGERY,2014-09-04,IMAGERY/OTHER,2015-08-14,3.0,3,115.0,115,115.0,115,Y,Y,115 to 229,POINT (-77.510062415066 38.74687681594516)
Tap139218,TAP139218,139218,MANASSAS,Manassas,20110,TAP,Tap,IN SERVICE,In service,MANASSAS,Manassas,51683,VA,Virginia,USA,38.7467028,-77.51007556,221121,ELECTRIC BULK POWER TRANSMISSION AND CONTROL,IMAGERY,2014-09-04,IMAGERY/OTHER,2015-08-14,3.0,3,115.0,115,115.0,115,Y,Y,115 to 229,POINT (-77.51007556011355 38.74670280032838)
Tap139219,TAP139219,139219,MANASSAS,Manassas,20110,TAP,Tap,IN SERVICE,In service,PRINCE WILLIAM,Prince William,51153,VA,Virginia,USA,38.757047021,-77.512927999,221121,ELECTRIC BULK POWER TRANSMISSION AND CONTROL,IMAGERY,2014-09-04,IMAGERY/OTHER,2015-08-14,3.0,3,115.0,115,115.0,115,Y,Y,115 to 229,POINT (-77.51292799860153 38.757047021300174)
Tap139220,TAP139220,139220,MANASSAS,Manassas,20109,TAP,Tap,IN SERVICE,In service,PRINCE WILLIAM,Prince William,51153,VA,Virginia,USA,38.766499779,-77.529242598,221121,ELECTRIC BULK POWER TRANSMISSION AND CONTROL,IMAGERY,2014-09-04,IMAGERY/OTHER,2015-08-14,3.0,3,115.0,115,115.0,115,Y,Y,115 to 229,POINT (-77.52924259802215 38.76649977877647)
Tap139222,TAP139222,139222,MANASSAS,Manassas,20109,TAP,Tap,IN SERVICE,In service,PRINCE WILLIAM,Prince William,51153,VA,Virginia,USA,38.7774679,-77.530226861,221121,ELECTRIC BULK POWER TRANSMISSION AND CONTROL,IMAGERY,2014-09-04,IMAGERY/OTHER,2015-08-14,3.0,3,115.0,115,115.0,115,Y,Y,115 to 229,POINT (-77.5302268614177 38.77746789972581)
Tap139223,TAP139223,139223,MANASSAS,Manassas,20109,TAP,Tap,IN SERVICE,In service,PRINCE WILLIAM,Prince William,51153,VA,Virginia,USA,38.795257975,-77.534471521,221121,ELECTRIC BULK POWER TRANSMISSION AND CONTROL,IMAGERY,2014-09-04,IMAGERY/OTHER,2015-08-14,3.0,3,115.0,115,115.0,115,Y,Y,115 to 229,POINT (-77.53447152061109 38.79525797471171)
Tap139225,TAP139225,139225,BRISTOW,Bristow,20136,TAP,Tap,IN SERVICE,In service,PRINCE WILLIAM,Prince William,51153,VA,Virginia,USA,38.784381207,-77.580700272,221121,ELECTRIC BULK POWER TRANSMISSION AND CONTROL,IMAGERY,2014-09-05,IMAGERY/OTHER,2015-08-14,3.0,3,230.0,230,230.0,230,N,N,Min 230,POINT (-77.58070027231781 38.78438120730661)
Tap139226,TAP139226,139226,BRISTOW,Bristow,20136,TAP,Tap,IN SERVICE,In service,PRINCE WILLIAM,Prince William,51153,VA,Virginia,USA,38.777611715,-77.592762064,221121,ELECTRIC BULK POWER TRANSMISSION AND CONTROL,IMAGERY,2014-09-05,IMAGERY/OTHER,2015-08-14,3.0,3,230.0,230,230.0,230,Y,Y,Min 230,POINT (-77.5927620639271 38.77761171505797)
Tap139227,TAP139227,139227,MANASSAS,Manassas,20109,TAP,Tap,IN SERVICE,In service,PRINCE WILLIAM,Prince William,51153,VA,Virginia,USA,38.776040894,-77.523921765,221121,ELECTRIC BULK POWER TRANSMISSION AND CONTROL,IMAGERY,2014-09-05,IMAGERY/OTHER,2015-08-14,3.0,3,115.0,115,115.0,115,Y,Y,115 to 229,POINT (-77.52392176520323 38.77604089365949)
Tap139228,TAP139228,139228,MANASSAS,Manassas,20110,TAP,Tap,IN SERVICE,In service,MANASSAS,Manassas,51683,VA,Virginia,USA,38.767954864,-77.480282262,221121,ELECTRIC BULK POWER TRANSMISSION AND CONTROL,IMAGERY,2014-09-05,IMAGERY/OTHER,2015-08-14,3.0,3,115.0,115,115.0,115,Y,Y,115 to 229,POINT (-77.4802822617759 38.7679548637901)
Tap139229,TAP139229,139229,SALTVILLE,Saltville,24370,TAP,Tap,IN SERVICE,In service,FAIRFAX,Fairfax,51059,VA,Virginia,USA,38.803108766,-77.461857342,221121,ELECTRIC BULK POWER TRANSMISSION AND CONTROL,IMAGERY,2014-09-08,IMAGERY/OTHER,2015-08-14,3.0,3,115.0,115,115.0,115,Y,Y,115 to 229,POINT (-77.46185734188646 38.803108766324286)
Tap139230,TAP139230,139230,CENTREVILLE,Centreville,20121,TAP,Tap,IN SERVICE,In service,FAIRFAX,Fairfax,51059,VA,Virginia,USA,38.803162492,-77.461691736,221121,ELECTRIC BULK POWER TRANSMISSION AND CONTROL,IMAGERY,2014-09-08,IMAGERY/OTHER,2015-08-14,3.0,3,115.0,115,115.0,115,Y,Y,115 to 229,POINT (-77.46169173566719 38.80316249175957)
Tap139231,TAP139231,139231,MANASSAS,Manassas,20111,TAP,Tap,IN SERVICE,In service,PRINCE WILLIAM,Prince William,51153,VA,Virginia,USA,38.796151753,-77.473703432,221121,ELECTRIC BULK POWER TRANSMISSION AND CONTROL,IMAGERY,2014-09-08,IMAGERY/OTHER,2015-08-14,3.0,3,115.0,115,115.0,115,Y,Y,115 to 229,POINT (-77.47370343182634 38.796151753107765)
Tap139232,TAP139232,139232,MANASSAS,Manassas,20111,TAP,Tap,IN SERVICE,In service,PRINCE WILLIAM,Prince William,51153,VA,Virginia,USA,38.795139132,-77.474500414,221121,ELECTRIC BULK POWER TRANSMISSION AND CONTROL,IMAGERY,2014-09-08,IMAGERY/OTHER,2015-08-14,3.0,3,115.0,115,115.0,115,Y,Y,115 to 229,POINT (-77.47450041355314 38.795139131823944)
Tap139233,TAP139233,139233,MANASSAS,Manassas,20109,TAP,Tap,IN SERVICE,In service,PRINCE WILLIAM,Prince William,51153,VA,Virginia,USA,38.787359028,-77.497984643,221121,ELECTRIC BULK POWER TRANSMISSION AND CONTROL,IMAGERY,2014-09-08,IMAGERY/OTHER,2015-08-14,3.0,3,115.0,115,115.0,115,Y,Y,115 to 229,POINT (-77.49798464332612 38.7873590278092)
Tap139234,TAP139234,139234,MANASSAS,Manassas,20109,TAP,Tap,IN SERVICE,In service,PRINCE WILLIAM,Prince William,51153,VA,Virginia,USA,38.782894549,-77.50799926,221121,ELECTRIC BULK POWER TRANSMISSION AND CONTROL,IMAGERY,2014-09-08,IMAGERY/OTHER,2015-08-14,3.0,3,115.0,115,115.0,115,Y,Y,115 to 229,POINT (-77.50799925974285 38.78289454866704)
Tap139235,TAP139235,139235,ALDIE,Aldie,20105,TAP,Tap,IN SERVICE,In service,LOUDOUN,Loudoun,51107,VA,Virginia,USA,38.933687143,-77.625506792,221121,ELECTRIC BULK POWER TRANSMISSION AND CONTROL,IMAGERY,2014-09-08,IMAGERY/OTHER,2015-08-14,3.0,3,115.0,115,115.0,115,Y,Y,115 to 229,POINT (-77.62550679240208 38.933687142709026)
Tap139236,TAP139236,139236,MANASSAS,Manassas,20112,TAP,Tap,IN SERVICE,In service,PRINCE WILLIAM,Prince William,51153,VA,Virginia,USA,38.656947651,-77.440964019,221121,ELECTRIC BULK POWER TRANSMISSION AND CONTROL,IMAGERY,2014-09-08,IMAGERY/OTHER,2015-08-14,3.0,3,115.0,115,115.0,115,Y,Y,115 to 229,POINT (-77.44096401868288 38.65694765064981)
Tap139237,TAP139237,139237,MANASSAS,Manassas,20109,TAP,Tap,IN SERVICE,In service,PRINCE WILLIAM,Prince William,51153,VA,Virginia,USA,38.799491329,-77.515294511,221121,ELECTRIC BULK POWER TRANSMISSION AND CONTROL,IMAGERY,2014-09-09,IMAGERY/OTHER,2015-08-14,3.0,3,115.0,115,115.0,115,Y,Y,115 to 229,POINT (-77.51529451140286 38.79949132874634)
Tap139243,TAP139243,139243,LEESBURG,Leesburg,20176,TAP,Tap,IN SERVICE,In service,LOUDOUN,Loudoun,51107,VA,Virginia,USA,39.112181583,-77.505299891,221121,ELECTRIC BULK POWER TRANSMISSION AND CONTROL,IMAGERY,2016-01-06,IMAGERY,2016-01-06,3.0,3,230.0,230,230.0,230,Y,Y,Min 230,POINT (-77.50529989058603 39.11218158334839)
Leesburg,LEESBURG,139256,LEESBURG,Leesburg,20175,SUBSTATION,Substation,IN SERVICE,In service,LOUDOUN,Loudoun,51107,VA,Virginia,USA,39.108308121,-77.556795821,221121,ELECTRIC BULK POWER TRANSMISSION AND CONTROL,OpenStreetMap,2016-08-04,IMAGERY/OTHER,2020-05-01,1.0,1,-999999.0,Unknown,-999999.0,Unknown,Y,Y,Unknown,POINT (-77.55679582143472 39.108308121282406)
Tap139259,TAP139259,139259,BERRYVILLE,Berryville,22611,TAP,Tap,IN SERVICE,In service,CLARKE,Clarke,51043,VA,Virginia,USA,39.159904837,-78.008222992,221121,ELECTRIC BULK POWER TRANSMISSION AND CONTROL,IMAGERY,2015-03-18,IMAGERY/OTHER,2015-08-14,3.0,3,138.0,138,138.0,138,Y,Y,115 to 229,POINT (-78.00822299238109 39.15990483733693)
Tap139313,TAP139313,139313,KING GEORGE,King George,22485,TAP,Tap,IN SERVICE,In service,KING GEORGE,King George,51099,VA,Virginia,USA,38.28708335,-77.230214062,221121,ELECTRIC BULK POWER TRANSMISSION AND CONTROL,IMAGERY,2014-08-20,IMAGERY/OTHER,2015-08-14,3.0,3,230.0,230,230.0,230,Y,Y,Min 230,POINT (-77.23021406166441 38.2870833499684)
Tap139314,TAP139314,139314,ALEXANDRIA,Alexandria,22315,TAP,Tap,IN SERVICE,In service,FAIRFAX,Fairfax,51059,VA,Virginia,USA,38.763016241,-77.149591885,221121,ELECTRIC BULK POWER TRANSMISSION AND CONTROL,IMAGERY,2014-08-28,IMAGERY/OTHER,2017-11-28,3.0,3,230.0,230,230.0,230,Y,Y,Min 230,POINT (-77.14959188457716 38.76301624072592)
Tap139355,TAP139355,139355,HALLWOOD,Hallwood,23359,TAP,Tap,IN SERVICE,In service,ACCOMACK,Accomack,51001,VA,Virginia,USA,37.875781978,-75.598111781,221121,ELECTRIC BULK POWER TRANSMISSION AND CONTROL,IMAGERY,2015-03-18,IMAGERY/OTHER,2015-08-14,3.0,3,69.0,69,69.0,69,Y,Y,69 to 114,POINT (-75.59811178105483 37.87578197824473)
Tap139356,TAP139356,139356,WALLOPS ISLAND,Wallops Island,23337,TAP,Tap,IN SERVICE,In service,ACCOMACK,Accomack,51001,VA,Virginia,USA,37.927768755,-75.50629508,221121,ELECTRIC BULK POWER TRANSMISSION AND CONTROL,IMAGERY,2015-03-19,IMAGERY/OTHER,2015-08-14,3.0,3,69.0,69,69.0,69,Y,Y,69 to 114,POINT (-75.50629508006955 37.92776875498398)
Tap139775,TAP139775,139775,STUARTS DRAFT,Stuarts Draft,24477,TAP,Tap,IN SERVICE,In service,AUGUSTA,Augusta,51015,VA,Virginia,USA,38.024384124,-79.048405275,221121,ELECTRIC BULK POWER TRANSMISSION AND CONTROL,IMAGERY,2015-03-16,IMAGERY/OTHER,2015-08-14,3.0,3,115.0,115,115.0,115,N,N,115 to 229,POINT (-79.04840527470067 38.02438412404454)
Tap139776,TAP139776,139776,FISHERSVILLE,Fishersville,22939,TAP,Tap,IN SERVICE,In service,AUGUSTA,Augusta,51015,VA,Virginia,USA,38.082213355,-79.006250982,221121,ELECTRIC BULK POWER TRANSMISSION AND CONTROL,IMAGERY,2015-03-16,IMAGERY/OTHER,2015-08-14,3.0,3,115.0,115,115.0,115,N,N,115 to 229,POINT (-79.00625098198373 38.08221335513687)
Tap139777,TAP139777,139777,HARRISONBURG,Harrisonburg,22801,TAP,Tap,IN SERVICE,In service,ROCKINGHAM,Rockingham,51165,VA,Virginia,USA,38.381522294,-78.884916262,221121,ELECTRIC BULK POWER TRANSMISSION AND CONTROL,IMAGERY,2015-03-17,IMAGERY/OTHER,2015-08-14,3.0,3,115.0,115,115.0,115,N,N,115 to 229,POINT (-78.88491626239646 38.38152229373032)
Tap140468,TAP140468,140468,CHARLOTTESVILLE,Charlottesville,22903,TAP,Tap,IN SERVICE,In service,ALBEMARLE,Albemarle,51003,VA,Virginia,USA,38.024907978,-78.7093334,221121,ELECTRIC BULK POWER TRANSMISSION AND CONTROL,IMAGERY,2015-03-16,IMAGERY/OTHER,2015-08-14,3.0,3,115.0,115,115.0,115,Y,Y,115 to 229,POINT (-78.70933340030543 38.02490797813936)
Tap140469,TAP140469,140469,CROZET,Crozet,22932,TAP,Tap,IN SERVICE,In service,ALBEMARLE,Albemarle,51003,VA,Virginia,USA,38.085100502,-78.698291391,221121,ELECTRIC BULK POWER TRANSMISSION AND CONTROL,IMAGERY,2015-03-16,IMAGERY/OTHER,2015-08-14,3.0,3,230.0,230,230.0,230,Y,Y,Min 230,POINT (-78.69829139057971 38.08510050164874)
Tap140470,TAP140470,140470,CROZET,Crozet,22932,TAP,Tap,IN SERVICE,In service,ALBEMARLE,Albemarle,51003,VA,Virginia,USA,38.085270998,-78.698434039,221121,ELECTRIC BULK POWER TRANSMISSION AND CONTROL,IMAGERY,2015-03-16,IMAGERY/OTHER,2015-08-14,3.0,3,230.0,230,230.0,230,Y,Y,Min 230,POINT (-78.69843403855525 38.085270998332916)
Tap140471,TAP140471,140471,CHARLOTTESVILLE,Charlottesville,22901,TAP,Tap,IN SERVICE,In service,ALBEMARLE,Albemarle,51003,VA,Virginia,USA,38.071254101,-78.530152193,221121,ELECTRIC BULK POWER TRANSMISSION AND CONTROL,IMAGERY,2015-03-16,IMAGERY/OTHER,2015-08-14,3.0,3,230.0,230,230.0,230,Y,Y,Min 230,POINT (-78.53015219261339 38.07125410075638)
Tap140472,TAP140472,140472,CHARLOTTESVILLE,Charlottesville,22901,TAP,Tap,IN SERVICE,In service,ALBEMARLE,Albemarle,51003,VA,Virginia,USA,38.071363556,-78.530347308,221121,ELECTRIC BULK POWER TRANSMISSION AND CONTROL,IMAGERY,2015-03-16,IMAGERY/OTHER,2015-08-14,3.0,3,230.0,230,230.0,230,Y,Y,Min 230,POINT (-78.53034730759143 38.071363555882)
Tap140473,TAP140473,140473,NORTH GARDEN,North Garden,22959,TAP,Tap,IN SERVICE,In service,ALBEMARLE,Albemarle,51003,VA,Virginia,USA,37.966457389,-78.627205511,221121,ELECTRIC BULK POWER TRANSMISSION AND CONTROL,IMAGERY,2015-03-16,IMAGERY/OTHER,2015-08-14,3.0,3,115.0,115,115.0,115,Y,Y,115 to 229,POINT (-78.62720551115636 37.9664573893121)
Tap140474,TAP140474,140474,TIMBERVILLE,Timberville,22853,TAP,Tap,IN SERVICE,In service,ROCKINGHAM,Rockingham,51165,VA,Virginia,USA,38.628152346,-78.782017726,221121,ELECTRIC BULK POWER TRANSMISSION AND CONTROL,IMAGERY,2015-03-18,IMAGERY/OTHER,2015-08-14,3.0,3,-999999.0,Unknown,-999999.0,Unknown,Y,Y,Unknown,POINT (-78.78201772577566 38.62815234629975)
Tap140475,TAP140475,140475,NEW MARKET,New Market,22844,TAP,Tap,IN SERVICE,In service,SHENANDOAH,Shenandoah,51171,VA,Virginia,USA,38.711516889,-78.609915251,221121,ELECTRIC BULK POWER TRANSMISSION AND CONTROL,IMAGERY,2015-03-18,IMAGERY/OTHER,2015-08-14,3.0,3,115.0,115,115.0,115,Y,Y,115 to 229,POINT (-78.60991525060734 38.71151688900151)
Tap140498,TAP140498,140498,KESWICK,Keswick,22947,TAP,Tap,IN SERVICE,In service,ALBEMARLE,Albemarle,51003,VA,Virginia,USA,38.065030526,-78.325263203,221121,ELECTRIC BULK POWER TRANSMISSION AND CONTROL,IMAGERY,2015-03-17,IMAGERY/OTHER,2015-08-14,3.0,3,230.0,230,230.0,230,Y,Y,Min 230,POINT (-78.32526320293631 38.0650305259568)
Tap140499,TAP140499,140499,CHARLOTTESVILLE,Charlottesville,22911,TAP,Tap,IN SERVICE,In service,ALBEMARLE,Albemarle,51003,VA,Virginia,USA,38.118925601,-78.416022772,221121,ELECTRIC BULK POWER TRANSMISSION AND CONTROL,IMAGERY,2015-03-17,IMAGERY/OTHER,2015-08-14,3.0,3,230.0,230,230.0,230,Y,Y,Min 230,POINT (-78.41602277188514 38.11892560078276)
Tap140501,TAP140501,140501,FRONT ROYAL,Front Royal,22630,TAP,Tap,IN SERVICE,In service,WARREN,Warren,51187,VA,Virginia,USA,38.941929238,-78.222210649,221121,ELECTRIC BULK POWER TRANSMISSION AND CONTROL,IMAGERY,2015-03-18,IMAGERY/OTHER,2015-08-14,3.0,3,138.0,138,138.0,138,Y,Y,115 to 229,POINT (-78.22221064926174 38.9419292379679)
HP Hood CT,HP HOOD CT,140514,WINCHESTER,Winchester,22602,SUBSTATION,Substation,IN SERVICE,In service,FREDERICK,Frederick,51069,VA,Virginia,USA,39.126140659,-78.18792182,221121,ELECTRIC BULK POWER TRANSMISSION AND CONTROL,"OpenStreetMap, EIA 860",2016-08-04,IMAGERY/OTHER,2021-06-01,-999999.0,Unknown,-999999.0,Unknown,-999999.0,Unknown,N,N,Unknown,POINT (-78.18792182011961 39.126140658768634)
Tap140638,TAP140638,140638,CULPEPER,Culpeper,22701,TAP,Tap,IN SERVICE,In service,ORANGE,Orange,51137,VA,Virginia,USA,38.32766078,-77.939942619,221121,ELECTRIC BULK POWER TRANSMISSION AND CONTROL,IMAGERY,2014-08-20,IMAGERY/OTHER,2015-08-14,3.0,3,115.0,115,115.0,115,Y,Y,115 to 229,POINT (-77.9399426189637 38.32766078020826)
Tap140639,TAP140639,140639,ORANGE,Orange,22960,TAP,Tap,IN SERVICE,In service,ORANGE,Orange,51137,VA,Virginia,USA,38.23740962,-78.104685666,221121,ELECTRIC BULK POWER TRANSMISSION AND CONTROL,IMAGERY,2014-08-20,IMAGERY/OTHER,2015-08-14,3.0,3,115.0,115,115.0,115,Y,Y,115 to 229,POINT (-78.10468566592981 38.23740962031193)
Tap140640,TAP140640,140640,LOCUST GROVE,Locust Grove,22508,TAP,Tap,IN SERVICE,In service,ORANGE,Orange,51137,VA,Virginia,USA,38.2543437,-77.811089048,221121,ELECTRIC BULK POWER TRANSMISSION AND CONTROL,IMAGERY,2014-08-20,IMAGERY/OTHER,2015-08-14,3.0,3,115.0,115,115.0,115,Y,Y,115 to 229,POINT (-77.81108904805906 38.25434369973444)
Tap140641,TAP140641,140641,LOUISA,Louisa,23093,TAP,Tap,IN SERVICE,In service,LOUISA,Louisa,51109,VA,Virginia,USA,38.010172672,-78.02824616,221121,ELECTRIC BULK POWER TRANSMISSION AND CONTROL,IMAGERY,2014-08-15,IMAGERY/OTHER,2015-08-14,3.0,3,230.0,230,230.0,230,Y,Y,Min 230,POINT (-78.02824615978976 38.0101726717534)
Tap140642,TAP140642,140642,KENTS STORE,Kents Store,23084,TAP,Tap,IN SERVICE,In service,FLUVANNA,Fluvanna,51065,VA,Virginia,USA,37.895318755,-78.092828112,221121,ELECTRIC BULK POWER TRANSMISSION AND CONTROL,IMAGERY,2014-08-15,IMAGERY/OTHER,2015-08-14,3.0,3,-999999.0,Unknown,-999999.0,Unknown,N,N,Unknown,POINT (-78.09282811169025 37.89531875522179)
Tap140643,TAP140643,140643,LOCUST GROVE,Locust Grove,22508,TAP,Tap,IN SERVICE,In service,ORANGE,Orange,51137,VA,Virginia,USA,38.313561613,-77.783627425,221121,ELECTRIC BULK POWER TRANSMISSION AND CONTROL,IMAGERY,2014-08-21,IMAGERY/OTHER,2015-08-14,3.0,3,115.0,115,115.0,115,Y,Y,115 to 229,POINT (-77.78362742495769 38.31356161313602)
Tap140644,TAP140644,140644,CULPEPER,Culpeper,22701,TAP,Tap,IN SERVICE,In service,CULPEPER,Culpeper,51047,VA,Virginia,USA,38.468649338,-77.989948887,221121,ELECTRIC BULK POWER TRANSMISSION AND CONTROL,IMAGERY,2014-09-08,IMAGERY/OTHER,2015-08-14,3.0,3,115.0,115,115.0,115,Y,Y,115 to 229,POINT (-77.98994888705144 38.468649338129396)
Tap140645,TAP140645,140645,CULPEPER,Culpeper,22701,TAP,Tap,IN SERVICE,In service,CULPEPER,Culpeper,51047,VA,Virginia,USA,38.361980444,-77.975835153,221121,ELECTRIC BULK POWER TRANSMISSION AND CONTROL,IMAGERY,2014-09-08,IMAGERY/OTHER,2015-08-14,3.0,3,115.0,115,115.0,115,N,N,115 to 229,POINT (-77.97583515289038 38.36198044387256)
Wattsville,WATTSVILLE,144353,NEW CHURCH,New Church,23415,SUBSTATION,Substation,IN SERVICE,In service,ACCOMACK,Accomack,51001,VA,Virginia,USA,37.934802337,-75.502105169,221121,ELECTRIC BULK POWER TRANSMISSION AND CONTROL,"IMAGERY, http://www.pjm.com/system-map/default.html",2015-03-18,IMAGERY,2015-03-19,5.0,5,138.0,138,69.0,69,N,Y,69 to 114,POINT (-75.50210516870114 37.93480233681001)
Wallops Island,WALLOPS ISLAND,144354,CHINCOTEAGUE ISLAND,Chincoteague Island,23336,SUBSTATION,Substation,IN SERVICE,In service,ACCOMACK,Accomack,51001,VA,Virginia,USA,37.934212236,-75.378154165,221121,ELECTRIC BULK POWER TRANSMISSION AND CONTROL,"IMAGERY, http://www.pjm.com/system-map/default.html",2015-03-19,IMAGERY,2015-03-19,2.0,2,69.0,69,69.0,69,Y,Y,69 to 114,POINT (-75.37815416513769 37.9342122361946)
Westmoreland,WESTMORELAND,146170,COLONIAL BEACH,Colonial Beach,22443,SUBSTATION,Substation,IN SERVICE,In service,WESTMORELAND,Westmoreland,51193,VA,Virginia,USA,38.184405167,-76.998633799,221121,ELECTRIC BULK POWER TRANSMISSION AND CONTROL,"IMAGERY, http://www.pjm.com/system-map/default.html",2014-08-20,IMAGERY,2015-04-01,2.0,2,230.0,230,230.0,230,N,N,Min 230,POINT (-76.99863379915789 38.1844051672174)
Potomac River,POTOMAC RIVER,146171,ALEXANDRIA,Alexandria,22314,SUBSTATION,Substation,IN SERVICE,In service,ALEXANDRIA,Alexandria,51510,VA,Virginia,USA,38.820891646,-77.042067856,221121,ELECTRIC BULK POWER TRANSMISSION AND CONTROL,"IMAGERY, http://www.pjm.com/system-map/default.html",2014-08-26,IMAGERY,2015-04-01,1.0,1,230.0,230,230.0,230,N,N,Min 230,POINT (-77.0420678560831 38.82089164587045)
Pentagon,PENTAGON,146172,ARLINGTON,Arlington,22202,SUBSTATION,Substation,IN SERVICE,In service,ARLINGTON,Arlington,51013,VA,Virginia,USA,38.868424354,-77.049466493,221121,ELECTRIC BULK POWER TRANSMISSION AND CONTROL,"IMAGERY, http://www.pjm.com/system-map/default.html",2014-08-26,IMAGERY,2015-04-01,2.0,2,-999999.0,Unknown,-999999.0,Unknown,N,N,Unknown,POINT (-77.04946649305252 38.868424354321974)
Jefferson Street,JEFFERSON STREET,146199,ALEXANDRIA,Alexandria,22314,SUBSTATION,Substation,IN SERVICE,In service,ALEXANDRIA,Alexandria,51510,VA,Virginia,USA,38.797078,-77.054847941,221121,ELECTRIC BULK POWER TRANSMISSION AND CONTROL,"IMAGERY, OpenStreetMap",2014-08-26,IMAGERY,2014-08-26,3.0,3,230.0,230,230.0,230,Y,Y,Min 230,POINT (-77.05484794059356 38.7970780002658)
Glebe,GLEBE,146200,ARLINGTON,Arlington,22202,SUBSTATION,Substation,IN SERVICE,In service,ARLINGTON,Arlington,51013,VA,Virginia,USA,38.841647684,-77.054615944,221121,ELECTRIC BULK POWER TRANSMISSION AND CONTROL,"IMAGERY, OpenStreetMap",2014-08-26,IMAGERY,2014-08-26,5.0,5,230.0,230,-999999.0,Unknown,Y,N,Unknown,POINT (-77.05461594438323 38.841647683954314)
Potomac Yard,POTOMAC YARD,146201,ALEXANDRIA,Alexandria,22305,SUBSTATION,Substation,IN SERVICE,In service,ALEXANDRIA,Alexandria,51510,VA,Virginia,USA,38.840282645,-77.050868409,221121,ELECTRIC BULK POWER TRANSMISSION AND CONTROL,"IMAGERY, OpenStreetMap",2014-08-26,IMAGERY,2014-08-26,4.0,4,230.0,230,230.0,230,Y,Y,Min 230,POINT (-77.0508684092748 38.84028264472154)
Pentagon,PENTAGON,146202,ARLINGTON,Arlington,22202,SUBSTATION,Substation,IN SERVICE,In service,ARLINGTON,Arlington,51013,VA,Virginia,USA,38.869420158,-77.048577764,221121,ELECTRIC BULK POWER TRANSMISSION AND CONTROL,"IMAGERY, OpenStreetMap",2014-08-26,IMAGERY,2014-08-26,-999999.0,Unknown,-999999.0,Unknown,-999999.0,Unknown,N,N,Unknown,POINT (-77.04857776369079 38.869420157709435)
Tap146330,TAP146330,146330,RICHMOND,Richmond,23230,TAP,Tap,IN SERVICE,In service,HENRICO,Henrico,51087,VA,Virginia,USA,37.58088355,-77.477702646,221121,ELECTRIC BULK POWER TRANSMISSION AND CONTROL,IMAGERY,2016-08-02,IMAGERY,2016-08-02,3.0,3,115.0,115,115.0,115,Y,Y,115 to 229,POINT (-77.4777026461313 37.58088355015709)
Iron Bridge,IRON BRIDGE,146331,RICHMOND,Richmond,23237,SUBSTATION,Substation,IN SERVICE,In service,CHESTERFIELD,Chesterfield,51041,VA,Virginia,USA,37.408621664,-77.504668534,221121,ELECTRIC BULK POWER TRANSMISSION AND CONTROL,"IMAGERY, http://www.pjm.com/system-map/default.html",2014-08-04,IMAGERY,2015-04-01,4.0,4,230.0,230,230.0,230,Y,Y,Min 230,POINT (-77.5046685339431 37.40862166365286)
Northwest,NORTHWEST,146332,HENRICO,Henrico,23294,SUBSTATION,Substation,IN SERVICE,In service,HENRICO,Henrico,51087,VA,Virginia,USA,37.630468193,-77.541556973,221121,ELECTRIC BULK POWER TRANSMISSION AND CONTROL,"IMAGERY, http://www.pjm.com/system-map/default.html",2014-08-04,IMAGERY,2015-04-01,6.0,6,230.0,230,115.0,115,Y,Y,115 to 229,POINT (-77.54155697343144 37.63046819274133)
Southwest,SOUTHWEST,146333,RICHMOND,Richmond,23225,SUBSTATION,Substation,IN SERVICE,In service,CHESTERFIELD,Chesterfield,51041,VA,Virginia,USA,37.502079655,-77.532332397,221121,ELECTRIC BULK POWER TRANSMISSION AND CONTROL,"IMAGERY, http://www.pjm.com/system-map/default.html",2014-08-04,IMAGERY,2015-04-01,6.0,6,230.0,230,115.0,115,N,Y,115 to 229,POINT (-77.532332396561 37.50207965472875)
Plaza,PLAZA,146334,RICHMOND,Richmond,23224,SUBSTATION,Substation,IN SERVICE,In service,RICHMOND,Richmond,51760,VA,Virginia,USA,37.498039786,-77.478184381,221121,ELECTRIC BULK POWER TRANSMISSION AND CONTROL,"IMAGERY, http://www.pjm.com/system-map/default.html",2014-08-04,IMAGERY,2015-04-01,3.0,3,230.0,230,115.0,115,N,Y,115 to 229,POINT (-77.47818438117713 37.49803978620896)
Mountain Road,MOUNTAIN ROAD,146335,GLEN ALLEN,Glen Allen,23060,SUBSTATION,Substation,IN SERVICE,In service,HENRICO,Henrico,51087,VA,Virginia,USA,37.670430294,-77.521910055,221121,ELECTRIC BULK POWER TRANSMISSION AND CONTROL,"IMAGERY, http://www.pjm.com/system-map/default.html",2014-08-04,IMAGERY,2015-04-01,4.0,4,230.0,230,230.0,230,Y,Y,Min 230,POINT (-77.52191005459976 37.67043029430128)
Elmont,ELMONT,146336,GLEN ALLEN,Glen Allen,23059,SUBSTATION,Substation,IN SERVICE,In service,HANOVER,Hanover,51085,VA,Virginia,USA,37.6977958,-77.484711467,221121,ELECTRIC BULK POWER TRANSMISSION AND CONTROL,"IMAGERY, http://www.pjm.com/system-map/default.html",2014-08-14,IMAGERY,2015-04-01,13.0,13,500.0,500,-999999.0,Unknown,N,Y,Unknown,POINT (-77.484711467268 37.697795800130216)
Acca,ACCA,146337,RICHMOND,Richmond,23230,SUBSTATION,Substation,IN SERVICE,In service,HENRICO,Henrico,51087,VA,Virginia,USA,37.57993938,-77.47755036,221121,ELECTRIC BULK POWER TRANSMISSION AND CONTROL,"IMAGERY, http://www.pjm.com/system-map/default.html",2014-08-05,IMAGERY,2015-04-01,5.0,5,115.0,115,-999999.0,Unknown,Y,Y,Unknown,POINT (-77.47755036013106 37.57993938020299)
Fredericksburg,FREDERICKSBURG,146338,FREDERICKSBURG,Fredericksburg,22401,SUBSTATION,Substation,IN SERVICE,In service,FREDERICKSBURG,Fredericksburg,51630,VA,Virginia,USA,38.30442241,-77.483244826,221121,ELECTRIC BULK POWER TRANSMISSION AND CONTROL,"IMAGERY, http://www.pjm.com/system-map/default.html",2014-08-19,IMAGERY,2015-04-01,5.0,5,230.0,230,115.0,115,N,Y,115 to 229,POINT (-77.48324482563285 38.30442241001359)
Ladysmith Ct,LADYSMITH CT,146339,WOODFORD,Woodford,22580,SUBSTATION,Substation,IN SERVICE,In service,CAROLINE,Caroline,51033,VA,Virginia,USA,38.066847209,-77.517588605,221121,ELECTRIC BULK POWER TRANSMISSION AND CONTROL,"IMAGERY, http://www.pjm.com/system-map/default.html",2014-08-19,IMAGERY,2015-04-01,1.0,1,115.0,115,115.0,115,Y,Y,115 to 229,POINT (-77.51758860472093 38.06684720888783)
Pleasant Valley,PLEASANT VALLEY,146340,CENTREVILLE,Centreville,20120,SUBSTATION,Substation,IN SERVICE,In service,FAIRFAX,Fairfax,51059,VA,Virginia,USA,38.858593864,-77.50687322,221121,ELECTRIC BULK POWER TRANSMISSION AND CONTROL,"IMAGERY, http://www.pjm.com/system-map/default.html",2014-08-26,IMAGERY,2015-04-01,1.0,1,230.0,230,230.0,230,N,N,Min 230,POINT (-77.50687321973759 38.858593864030276)
Cub-Run DP,CUB-RUN DP,146341,CENTREVILLE,Centreville,20120,SUBSTATION,Substation,IN SERVICE,In service,FAIRFAX,Fairfax,51059,VA,Virginia,USA,38.875095574,-77.470410942,221121,ELECTRIC BULK POWER TRANSMISSION AND CONTROL,"IMAGERY, http://www.pjm.com/system-map/default.html",2014-08-26,IMAGERY,2015-04-01,1.0,1,230.0,230,230.0,230,Y,Y,Min 230,POINT (-77.47041094191835 38.87509557390353)
Brambleton,BRAMBLETON,146342,ALDIE,Aldie,20105,SUBSTATION,Substation,IN SERVICE,In service,LOUDOUN,Loudoun,51107,VA,Virginia,USA,38.963557926,-77.549042104,221121,ELECTRIC BULK POWER TRANSMISSION AND CONTROL,"IMAGERY, http://www.pjm.com/system-map/default.html",2014-08-27,IMAGERY,2015-04-01,9.0,9,500.0,500,230.0,230,N,Y,Min 230,POINT (-77.54904210378969 38.96355792573926)
Pleasant View,PLEASANT VIEW,146343,LEESBURG,Leesburg,20175,SUBSTATION,Substation,IN SERVICE,In service,LOUDOUN,Loudoun,51107,VA,Virginia,USA,39.077167113,-77.529432293,221121,ELECTRIC BULK POWER TRANSMISSION AND CONTROL,"IMAGERY, http://www.pjm.com/system-map/default.html",2014-08-27,IMAGERY,2015-04-01,1.0,1,-999999.0,Unknown,-999999.0,Unknown,N,N,Unknown,POINT (-77.52943229256574 39.077167112984704)
Pleasant View,PLEASANT VIEW,146344,LEESBURG,Leesburg,20175,SUBSTATION,Substation,IN SERVICE,In service,LOUDOUN,Loudoun,51107,VA,Virginia,USA,39.075908171,-77.528822202,221121,ELECTRIC BULK POWER TRANSMISSION AND CONTROL,"IMAGERY, http://www.pjm.com/system-map/default.html",2014-08-27,IMAGERY,2015-04-01,4.0,4,230.0,230,230.0,230,N,N,Min 230,POINT (-77.52882220174054 39.07590817087488)
Cannon Branch,CANNON BRANCH,146345,MANASSAS,Manassas,20110,SUBSTATION,Substation,IN SERVICE,In service,MANASSAS,Manassas,51683,VA,Virginia,USA,38.744047747,-77.503011778,221121,ELECTRIC BULK POWER TRANSMISSION AND CONTROL,"IMAGERY, http://www.pjm.com/system-map/default.html",2014-08-27,IMAGERY,2015-04-01,6.0,6,230.0,230,115.0,115,Y,Y,115 to 229,POINT (-77.50301177825112 38.744047747066865)
Greenway,GREENWAY,146346,ASHBURN,Ashburn,20147,SUBSTATION,Substation,IN SERVICE,In service,LOUDOUN,Loudoun,51107,VA,Virginia,USA,39.004050421,-77.479597629,221121,ELECTRIC BULK POWER TRANSMISSION AND CONTROL,"IMAGERY, http://www.pjm.com/system-map/default.html",2014-08-28,IMAGERY,2015-04-01,4.0,4,230.0,230,-999999.0,Unknown,Y,N,Unknown,POINT (-77.47959762874842 39.00405042070523)
Garrisonville,GARRISONVILLE,146347,STAFFORD,Stafford,22556,SUBSTATION,Substation,IN SERVICE,In service,STAFFORD,Stafford,51179,VA,Virginia,USA,38.455679633,-77.489734139,221121,ELECTRIC BULK POWER TRANSMISSION AND CONTROL,"IMAGERY, http://www.pjm.com/system-map/default.html",2014-08-28,IMAGERY,2015-04-01,2.0,2,-999999.0,Unknown,-999999.0,Unknown,N,N,Unknown,POINT (-77.48973413936267 38.455679632969904)
Ashburn,ASHBURN,146348,ASHBURN,Ashburn,20147,SUBSTATION,Substation,IN SERVICE,In service,LOUDOUN,Loudoun,51107,VA,Virginia,USA,39.051392273,-77.498370493,221121,ELECTRIC BULK POWER TRANSMISSION AND CONTROL,"IMAGERY, http://www.pjm.com/system-map/default.html",2014-09-03,IMAGERY,2015-04-01,5.0,5,230.0,230,-999999.0,Unknown,Y,Y,Unknown,POINT (-77.49837049309686 39.0513922729234)
Tap146350,TAP146350,146350,RICHMOND,Richmond,23235,TAP,Tap,IN SERVICE,In service,CHESTERFIELD,Chesterfield,51041,VA,Virginia,USA,37.527755731,-77.545313984,221121,ELECTRIC BULK POWER TRANSMISSION AND CONTROL,IMAGERY,2014-08-07,IMAGERY/OTHER,2015-08-14,3.0,3,115.0,115,115.0,115,Y,Y,115 to 229,POINT (-77.54531398396949 37.527755730831004)
Tap146357,TAP146357,146357,LEESBURG,Leesburg,20175,TAP,Tap,IN SERVICE,In service,LOUDOUN,Loudoun,51107,VA,Virginia,USA,39.062898892,-77.538607333,221121,ELECTRIC BULK POWER TRANSMISSION AND CONTROL,IMAGERY,2017-05-23,IMAGERY,2017-05-23,3.0,3,230.0,230,230.0,230,Y,Y,Min 230,POINT (-77.53860733273815 39.06289889226331)
Enterprise,UNKNOWN146358,146358,ASHBURN,Ashburn,20147,SUBSTATION,Substation,IN SERVICE,In service,LOUDOUN,Loudoun,51107,VA,Virginia,USA,39.002224143,-77.480390523,221121,ELECTRIC BULK POWER TRANSMISSION AND CONTROL,IMAGERY,2017-05-23,IMAGERY,2017-05-23,2.0,2,230.0,230,230.0,230,Y,Y,Min 230,POINT (-77.48039052314068 39.002224143080326)
Shellhorn,UNKNOWN146361,146361,ASHBURN,Ashburn,20147,SUBSTATION,Substation,IN SERVICE,In service,LOUDOUN,Loudoun,51107,VA,Virginia,USA,38.998881,-77.471994,221121,ELECTRIC BULK POWER TRANSMISSION AND CONTROL,IMAGERY,2017-05-24,IMAGERY,2017-05-24,4.0,4,230.0,230,230.0,230,Y,Y,Min 230,POINT (-77.47199399982442 38.99888100000706)
Mine Road,MINE ROAD,146362,FREDERICKSBURG,Fredericksburg,22408,SUBSTATION,Substation,IN SERVICE,In service,SPOTSYLVANIA,Spotsylvania,51177,VA,Virginia,USA,38.250285904,-77.475913984,221121,ELECTRIC BULK POWER TRANSMISSION AND CONTROL,"IMAGERY, OpenStreetMap",2014-08-19,IMAGERY,2014-08-19,4.0,4,115.0,115,115.0,115,Y,Y,115 to 229,POINT (-77.47591398361962 38.25028590387256)
Ladysmith Ct,LADYSMITH CT,146363,WOODFORD,Woodford,22580,SUBSTATION,Substation,IN SERVICE,In service,CAROLINE,Caroline,51033,VA,Virginia,USA,38.073268857,-77.513067453,221121,ELECTRIC BULK POWER TRANSMISSION AND CONTROL,"IMAGERY, OpenStreetMap",2014-08-19,IMAGERY,2014-08-19,4.0,4,230.0,230,115.0,115,Y,N,115 to 229,POINT (-77.51306745306623 38.07326885672536)
NOVEC Paradise,NOVEC PARADISE,146364,MANASSAS,Manassas,20109,SUBSTATION,Substation,IN SERVICE,In service,PRINCE WILLIAM,Prince William,51153,VA,Virginia,USA,38.778114285,-77.530579618,221121,ELECTRIC BULK POWER TRANSMISSION AND CONTROL,"IMAGERY, OpenStreetMap",2014-09-04,IMAGERY,2014-09-04,1.0,1,115.0,115,115.0,115,Y,Y,115 to 229,POINT (-77.53057961815168 38.77811428524526)
Tap146365,TAP146365,146365,HENRICO,Henrico,23229,TAP,Tap,IN SERVICE,In service,HENRICO,Henrico,51087,VA,Virginia,USA,37.573910842,-77.575059125,221121,ELECTRIC BULK POWER TRANSMISSION AND CONTROL,IMAGERY,2016-08-02,IMAGERY,2016-08-02,3.0,3,230.0,230,230.0,230,Y,Y,Min 230,POINT (-77.57505912542139 37.57391084227963)
Tap146366,TAP146366,146366,HENRICO,Henrico,23229,TAP,Tap,IN SERVICE,In service,HENRICO,Henrico,51087,VA,Virginia,USA,37.57408352,-77.57490805,221121,ELECTRIC BULK POWER TRANSMISSION AND CONTROL,IMAGERY,2016-08-02,IMAGERY,2016-08-02,3.0,3,230.0,230,230.0,230,Y,Y,Min 230,POINT (-77.57490805035016 37.57408352032017)
River Road,RIVER ROAD,146367,HENRICO,Henrico,23229,SUBSTATION,Substation,IN SERVICE,In service,HENRICO,Henrico,51087,VA,Virginia,USA,37.574427702,-77.575167897,221121,ELECTRIC BULK POWER TRANSMISSION AND CONTROL,"IMAGERY, http://www.pjm.com/system-map/default.html",2014-08-04,IMAGERY,2015-04-01,4.0,4,230.0,230,115.0,115,Y,Y,115 to 229,POINT (-77.57516789702926 37.57442770187282)
Short Pump,SHORT PUMP,146368,HENRICO,Henrico,23233,SUBSTATION,Substation,IN SERVICE,In service,HENRICO,Henrico,51087,VA,Virginia,USA,37.659624253,-77.62363304,221121,ELECTRIC BULK POWER TRANSMISSION AND CONTROL,"IMAGERY, http://www.pjm.com/system-map/default.html",2014-08-14,IMAGERY,2015-04-01,2.0,2,230.0,230,230.0,230,N,N,Min 230,POINT (-77.62363303967008 37.6596242529759)
Hull Street Road,HULL STREET ROAD,146369,RICHMOND,Richmond,23236,SUBSTATION,Substation,IN SERVICE,In service,CHESTERFIELD,Chesterfield,51041,VA,Virginia,USA,37.444430447,-77.576578061,221121,ELECTRIC BULK POWER TRANSMISSION AND CONTROL,"IMAGERY, http://www.pjm.com/system-map/default.html",2014-08-11,IMAGERY,2015-04-01,4.0,4,230.0,230,230.0,230,Y,Y,Min 230,POINT (-77.57657806068416 37.444430447046386)
Trabue,TRABUE,146370,MIDLOTHIAN,Midlothian,23113,SUBSTATION,Substation,IN SERVICE,In service,CHESTERFIELD,Chesterfield,51041,VA,Virginia,USA,37.507266506,-77.628992965,221121,ELECTRIC BULK POWER TRANSMISSION AND CONTROL,"IMAGERY, http://www.pjm.com/system-map/default.html",2014-08-11,IMAGERY,2015-04-01,2.0,2,230.0,230,230.0,230,Y,Y,Min 230,POINT (-77.62899296537356 37.507266506328484)
Ladysmith,LADYSMITH,146371,WOODFORD,Woodford,22580,SUBSTATION,Substation,IN SERVICE,In service,CAROLINE,Caroline,51033,VA,Virginia,USA,38.046652792,-77.550276365,221121,ELECTRIC BULK POWER TRANSMISSION AND CONTROL,"IMAGERY, http://www.pjm.com/system-map/default.html",2014-08-19,IMAGERY,2015-04-01,5.0,5,500.0,500,230.0,230,N,Y,Min 230,POINT (-77.55027636473555 38.04665279182542)
Todds Tavern DP,TODDS TAVERN DP,146372,SPOTSYLVANIA,Spotsylvania,22553,SUBSTATION,Substation,IN SERVICE,In service,SPOTSYLVANIA,Spotsylvania,51177,VA,Virginia,USA,38.247885304,-77.665912622,221121,ELECTRIC BULK POWER TRANSMISSION AND CONTROL,"IMAGERY, http://www.pjm.com/system-map/default.html",2014-08-20,IMAGERY,2015-04-01,2.0,2,115.0,115,115.0,115,Y,Y,115 to 229,POINT (-77.66591262221633 38.24788530431574)
Ni River DP,NI RIVER DP,146373,SPOTSYLVANIA,Spotsylvania,22553,SUBSTATION,Substation,IN SERVICE,In service,SPOTSYLVANIA,Spotsylvania,51177,VA,Virginia,USA,38.243256459,-77.58614837,221121,ELECTRIC BULK POWER TRANSMISSION AND CONTROL,"IMAGERY, http://www.pjm.com/system-map/default.html",2014-08-20,IMAGERY,2015-04-01,2.0,2,115.0,115,115.0,115,Y,Y,115 to 229,POINT (-77.58614837036137 38.243256458656575)
Chancellor,CHANCELLOR,146374,FREDERICKSBURG,Fredericksburg,22407,SUBSTATION,Substation,IN SERVICE,In service,SPOTSYLVANIA,Spotsylvania,51177,VA,Virginia,USA,38.262252644,-77.589262375,221121,ELECTRIC BULK POWER TRANSMISSION AND CONTROL,"IMAGERY, http://www.pjm.com/system-map/default.html",2014-08-20,IMAGERY,2015-04-01,3.0,3,500.0,500,115.0,115,N,Y,115 to 229,POINT (-77.58926237490388 38.26225264402689)
Bristers,BRISTERS,146375,CATLETT,Catlett,20119,SUBSTATION,Substation,IN SERVICE,In service,FAUQUIER,Fauquier,51061,VA,Virginia,USA,38.563120744,-77.59554124,221121,ELECTRIC BULK POWER TRANSMISSION AND CONTROL,"IMAGERY, http://www.pjm.com/system-map/default.html",2014-08-21,IMAGERY,2015-04-01,5.0,5,500.0,500,115.0,115,N,N,115 to 229,POINT (-77.59554124031206 38.56312074423799)
Gainesville,GAINESVILLE,146376,MANASSAS,Manassas,20109,SUBSTATION,Substation,IN SERVICE,In service,PRINCE WILLIAM,Prince William,51153,VA,Virginia,USA,38.790845286,-77.565172073,221121,ELECTRIC BULK POWER TRANSMISSION AND CONTROL,"IMAGERY, http://www.pjm.com/system-map/default.html",2014-08-26,IMAGERY,2015-04-01,7.0,7,230.0,230,115.0,115,N,Y,115 to 229,POINT (-77.56517207336827 38.790845286215536)
Mosby,MOSBY,146377,ALDIE,Aldie,20105,SUBSTATION,Substation,IN SERVICE,In service,LOUDOUN,Loudoun,51107,VA,Virginia,USA,38.894968597,-77.568203064,221121,ELECTRIC BULK POWER TRANSMISSION AND CONTROL,"IMAGERY, http://www.pjm.com/system-map/default.html, https://www.dominionenergy.com/library/domcom/media/about-us/electric-projects/power-line-projects/brambleton-mosby/brambleton-mosby-aerial-map.pdf",2014-08-26,IMAGERY,2019-03-04,15.0,15,500.0,500,115.0,115,Y,N,115 to 229,POINT (-77.56820306369706 38.894968596834595)
New Road,NEW ROAD,146378,ALDIE,Aldie,20105,SUBSTATION,Substation,IN SERVICE,In service,LOUDOUN,Loudoun,51107,VA,Virginia,USA,38.933913292,-77.625408946,221121,ELECTRIC BULK POWER TRANSMISSION AND CONTROL,"IMAGERY, http://www.pjm.com/system-map/default.html",2014-08-27,IMAGERY,2015-04-01,2.0,2,115.0,115,115.0,115,Y,Y,115 to 229,POINT (-77.62540894610471 38.933913292092726)
Lovettsville,LOVETTSVILLE,146379,LOVETTSVILLE,Lovettsville,20180,SUBSTATION,Substation,IN SERVICE,In service,LOUDOUN,Loudoun,51107,VA,Virginia,USA,39.295431597,-77.632679468,221121,ELECTRIC BULK POWER TRANSMISSION AND CONTROL,"IMAGERY, http://www.pjm.com/system-map/default.html",2014-09-08,IMAGERY,2015-04-01,2.0,2,138.0,138,138.0,138,Y,Y,115 to 229,POINT (-77.63267946804326 39.29543159680079)
Tap146380,TAP146380,146380,MIDLOTHIAN,Midlothian,23114,TAP,Tap,IN SERVICE,In service,CHESTERFIELD,Chesterfield,51041,VA,Virginia,USA,37.47304075,-77.637198627,221121,ELECTRIC BULK POWER TRANSMISSION AND CONTROL,IMAGERY,2014-08-12,IMAGERY/OTHER,2015-08-14,2.0,2,230.0,230,230.0,230,Y,Y,Min 230,POINT (-77.63719862723465 37.473040749828805)
Tap146381,TAP146381,146381,MIDLOTHIAN,Midlothian,23114,TAP,Tap,IN SERVICE,In service,CHESTERFIELD,Chesterfield,51041,VA,Virginia,USA,37.472480266,-77.636496313,221121,ELECTRIC BULK POWER TRANSMISSION AND CONTROL,IMAGERY,2014-08-12,IMAGERY/OTHER,2019-03-21,3.0,3,230.0,230,230.0,230,Y,Y,Min 230,POINT (-77.63649631266743 37.472480266005206)
Tap146382,TAP146382,146382,MIDLOTHIAN,Midlothian,23114,TAP,Tap,IN SERVICE,In service,CHESTERFIELD,Chesterfield,51041,VA,Virginia,USA,37.472518949,-77.63641165,221121,ELECTRIC BULK POWER TRANSMISSION AND CONTROL,IMAGERY,2014-08-12,IMAGERY/OTHER,2015-08-14,3.0,3,230.0,230,230.0,230,Y,Y,Min 230,POINT (-77.63641165004516 37.47251894891138)
Tap146384,TAP146384,146384,CATHARPIN,Catharpin,20143,TAP,Tap,IN SERVICE,In service,PRINCE WILLIAM,Prince William,51153,VA,Virginia,USA,38.854724293,-77.567813393,221121,ELECTRIC BULK POWER TRANSMISSION AND CONTROL,IMAGERY,2014-08-26,IMAGERY/OTHER,2017-05-16,3.0,3,115.0,115,115.0,115,N,N,115 to 229,POINT (-77.56781339339143 38.85472429320073)
Sowego DP,SOWEGO DP,146387,CATLETT,Catlett,20119,SUBSTATION,Substation,IN SERVICE,In service,FAUQUIER,Fauquier,51061,VA,Virginia,USA,38.591293483,-77.577790738,221121,ELECTRIC BULK POWER TRANSMISSION AND CONTROL,"IMAGERY, OpenStreetMap",2014-08-21,IMAGERY,2014-08-21,2.0,2,115.0,115,115.0,115,Y,Y,115 to 229,POINT (-77.57779073780871 38.591293483252514)
Stockton,STOCKTON,146388,AXTON,Axton,24054,SUBSTATION,Substation,IN SERVICE,In service,HENRY,Henry,51089,VA,Virginia,USA,36.682597397,-79.740493502,221121,ELECTRIC BULK POWER TRANSMISSION AND CONTROL,"IMAGERY, http://www.pjm.com/system-map/default.html",2014-07-08,IMAGERY,2015-04-01,2.0,2,-999999.0,Unknown,-999999.0,Unknown,Y,Y,Unknown,POINT (-79.74049350157797 36.6825973966615)
Blue Ridge,BLUE RIDGE,146405,BLUE RIDGE,Blue Ridge,24064,SUBSTATION,Substation,IN SERVICE,In service,BOTETOURT,Botetourt,51023,VA,Virginia,USA,37.385488306,-79.798395288,221121,ELECTRIC BULK POWER TRANSMISSION AND CONTROL,"IMAGERY, OpenStreetMap",2015-03-11,IMAGERY,2015-03-11,1.0,1,-999999.0,Unknown,-999999.0,Unknown,N,N,Unknown,POINT (-79.79839528817497 37.385488305893695)
Tap146406,TAP146406,146406,RIDGEWAY,Ridgeway,24148,TAP,Tap,IN SERVICE,In service,HENRY,Henry,51089,VA,Virginia,USA,36.628361651,-79.858384553,221121,ELECTRIC BULK POWER TRANSMISSION AND CONTROL,IMAGERY,2016-08-02,IMAGERY,2016-08-02,3.0,3,-999999.0,Unknown,-999999.0,Unknown,Y,Y,Unknown,POINT (-79.85838455287977 36.62836165075319)
Lowmoor,LOWMOOR,146407,COVINGTON,Covington,24426,SUBSTATION,Substation,IN SERVICE,In service,ALLEGHANY,Alleghany,51005,VA,Virginia,USA,37.776528516,-79.891991394,221121,ELECTRIC BULK POWER TRANSMISSION AND CONTROL,"IMAGERY, http://www.pjm.com/system-map/default.html",2014-07-02,IMAGERY,2015-03-11,5.0,5,230.0,230,138.0,138,N,Y,115 to 229,POINT (-79.89199139363461 37.77652851570269)
Ridgeway,RIDGEWAY,146408,RIDGEWAY,Ridgeway,24148,SUBSTATION,Substation,IN SERVICE,In service,HENRY,Henry,51089,VA,Virginia,USA,36.586418588,-79.838654196,221121,ELECTRIC BULK POWER TRANSMISSION AND CONTROL,"IMAGERY, http://www.pjm.com/system-map/default.html",2014-07-09,IMAGERY,2015-04-01,4.0,4,138.0,138,-999999.0,Unknown,Y,Y,Unknown,POINT (-79.83865419582955 36.58641858789178)
Blaine,BLAINE,146409,ROCKY MOUNT,Rocky Mount,24151,SUBSTATION,Substation,IN SERVICE,In service,FRANKLIN,Franklin,51067,VA,Virginia,USA,37.050677761,-79.865721371,221121,ELECTRIC BULK POWER TRANSMISSION AND CONTROL,IMAGERY,2015-03-05,IMAGERY,2015-03-05,3.0,3,138.0,138,138.0,138,Y,Y,115 to 229,POINT (-79.8657213713846 37.05067776082455)
Vinton,VINTON,146410,VINTON,Vinton,24179,SUBSTATION,Substation,IN SERVICE,In service,ROANOKE,Roanoke,51161,VA,Virginia,USA,37.268299246,-79.862955055,221121,ELECTRIC BULK POWER TRANSMISSION AND CONTROL,"IMAGERY, http://www.pjm.com/system-map/default.html",2015-03-05,IMAGERY,2015-03-05,2.0,2,138.0,138,138.0,138,N,N,115 to 229,POINT (-79.86295505528123 37.2682992460195)
Clifton Forge,CLIFTON FORGE,146411,CLIFTON FORGE,Clifton Forge,24422,SUBSTATION,Substation,IN SERVICE,In service,ALLEGHANY,Alleghany,51005,VA,Virginia,USA,37.812401775,-79.824104896,221121,ELECTRIC BULK POWER TRANSMISSION AND CONTROL,"IMAGERY, http://www.pjm.com/system-map/default.html",2015-03-11,IMAGERY,2015-03-11,4.0,4,230.0,230,138.0,138,N,Y,115 to 229,POINT (-79.824104896435 37.812401775324524)
Bonsack,BONSACK,146412,ROANOKE,Roanoke,24019,SUBSTATION,Substation,IN SERVICE,In service,BOTETOURT,Botetourt,51023,VA,Virginia,USA,37.333084266,-79.870118642,221121,ELECTRIC BULK POWER TRANSMISSION AND CONTROL,"IMAGERY, http://www.pjm.com/system-map/default.html",2015-03-11,IMAGERY,2015-03-11,2.0,2,138.0,138,138.0,138,N,N,115 to 229,POINT (-79.87011864176834 37.33308426585204)
Tap146413,TAP146413,146413,ROANOKE,Roanoke,24019,TAP,Tap,IN SERVICE,In service,BOTETOURT,Botetourt,51023,VA,Virginia,USA,37.349501269,-79.872779121,221121,ELECTRIC BULK POWER TRANSMISSION AND CONTROL,IMAGERY,2015-03-11,IMAGERY/OTHER,2015-08-14,3.0,3,-999999.0,Unknown,-999999.0,Unknown,N,N,Unknown,POINT (-79.87277912105988 37.34950126905971)
Lake Forest,LAKE FOREST,146434,TROUTVILLE,Troutville,24175,SUBSTATION,Substation,IN SERVICE,In service,BOTETOURT,Botetourt,51023,VA,Virginia,USA,37.378384694,-79.84733838,221121,ELECTRIC BULK POWER TRANSMISSION AND CONTROL,"IMAGERY, OpenStreetMap",2015-03-11,IMAGERY,2015-03-11,2.0,2,138.0,138,138.0,138,N,N,115 to 229,POINT (-79.84733838036102 37.3783846943225)
Tap146598,TAP146598,146598,PALMYRA,Palmyra,22963,TAP,Tap,IN SERVICE,In service,FLUVANNA,Fluvanna,51065,VA,Virginia,USA,37.879784621,-78.357074287,221121,ELECTRIC BULK POWER TRANSMISSION AND CONTROL,IMAGERY,2016-08-02,IMAGERY,2016-08-02,3.0,3,230.0,230,230.0,230,Y,Y,Min 230,POINT (-78.3570742871837 37.87978462101243)
Cunningham,CUNNINGHAM,146599,SCOTTSVILLE,Scottsville,24590,SUBSTATION,Substation,IN SERVICE,In service,FLUVANNA,Fluvanna,51065,VA,Virginia,USA,37.868649657,-78.37414532,221121,ELECTRIC BULK POWER TRANSMISSION AND CONTROL,"IMAGERY, http://www.pjm.com/system-map/default.html",2014-08-14,IMAGERY,2015-10-05,4.0,4,500.0,500,500.0,500,Y,Y,Min 230,POINT (-78.37414532017584 37.86864965702315)
Fluvanna P.S.,FLUVANNA P.S.,146600,SCOTTSVILLE,Scottsville,24590,SUBSTATION,Substation,IN SERVICE,In service,FLUVANNA,Fluvanna,51065,VA,Virginia,USA,37.86735761,-78.379427723,221121,ELECTRIC BULK POWER TRANSMISSION AND CONTROL,"IMAGERY, http://www.pjm.com/system-map/default.html",2014-08-14,IMAGERY,2015-10-05,3.0,3,500.0,500,500.0,500,Y,Y,Min 230,POINT (-78.37942772306691 37.86735760972083)
Pratt's,PRATT'S,146601,MADISON,Madison,22727,SUBSTATION,Substation,IN SERVICE,In service,MADISON,Madison,51113,VA,Virginia,USA,38.348633517,-78.26861639,221121,ELECTRIC BULK POWER TRANSMISSION AND CONTROL,"IMAGERY, http://www.pjm.com/system-map/default.html",2014-08-20,IMAGERY,2015-03-18,3.0,3,115.0,115,-999999.0,Unknown,Y,N,Unknown,POINT (-78.2686163897407 38.34863351715605)
Charlottesville,CHARLOTTESVILLE,146602,CHARLOTTESVILLE,Charlottesville,22901,SUBSTATION,Substation,IN SERVICE,In service,CHARLOTTESVILLE,Charlottesville,51540,VA,Virginia,USA,38.04159285,-78.457822214,221121,ELECTRIC BULK POWER TRANSMISSION AND CONTROL,"IMAGERY, http://www.pjm.com/system-map/default.html",2015-03-16,IMAGERY,2015-03-17,5.0,5,230.0,230,230.0,230,N,N,Min 230,POINT (-78.45782221389518 38.04159285010375)
Scottsville,SCOTTSVILLE,146603,SCOTTSVILLE,Scottsville,24590,SUBSTATION,Substation,IN SERVICE,In service,ALBEMARLE,Albemarle,51003,VA,Virginia,USA,37.795468567,-78.509328637,221121,ELECTRIC BULK POWER TRANSMISSION AND CONTROL,"IMAGERY, http://www.pjm.com/system-map/default.html",2015-03-16,IMAGERY,2015-03-17,1.0,1,-999999.0,Unknown,-999999.0,Unknown,Y,Y,Unknown,POINT (-78.50932863706637 37.795468566816226)
Edinburg,EDINBURG,146604,EDINBURG,Edinburg,22824,SUBSTATION,Substation,IN SERVICE,In service,SHENANDOAH,Shenandoah,51171,VA,Virginia,USA,38.834046147,-78.536077204,221121,ELECTRIC BULK POWER TRANSMISSION AND CONTROL,"IMAGERY, http://www.pjm.com/system-map/default.html",2015-03-17,IMAGERY,2015-03-18,2.0,2,138.0,138,115.0,115,Y,Y,115 to 229,POINT (-78.53607720444465 38.834046146909316)
Strasburg,STRASBURG,146605,STRASBURG,Strasburg,22657,SUBSTATION,Substation,IN SERVICE,In service,SHENANDOAH,Shenandoah,51171,VA,Virginia,USA,39.001643364,-78.358713818,221121,ELECTRIC BULK POWER TRANSMISSION AND CONTROL,"IMAGERY, http://www.pjm.com/system-map/default.html",2015-03-17,IMAGERY,2015-03-18,3.0,3,138.0,138,-999999.0,Unknown,Y,N,Unknown,POINT (-78.35871381768011 39.001643363956326)
Page,PAGE,146606,LURAY,Luray,22835,SUBSTATION,Substation,IN SERVICE,In service,PAGE,Page,51139,VA,Virginia,USA,38.669602296,-78.452053565,221121,ELECTRIC BULK POWER TRANSMISSION AND CONTROL,"IMAGERY, http://www.pjm.com/system-map/default.html",2015-03-18,IMAGERY,2015-03-18,4.0,4,138.0,138,-999999.0,Unknown,N,N,Unknown,POINT (-78.45205356461891 38.66960229618898)
North Shenandoah,NORTH SHENANDOAH,146607,SHENANDOAH,Shenandoah,22849,SUBSTATION,Substation,IN SERVICE,In service,PAGE,Page,51139,VA,Virginia,USA,38.526927128,-78.620324004,221121,ELECTRIC BULK POWER TRANSMISSION AND CONTROL,"IMAGERY, http://www.pjm.com/system-map/default.html",2015-03-18,IMAGERY,2015-03-18,4.0,4,138.0,138,-999999.0,Unknown,N,N,Unknown,POINT (-78.62032400375328 38.52692712791763)
Tap146608,TAP146608,146608,SCOTTSVILLE,Scottsville,24590,TAP,Tap,IN SERVICE,In service,FLUVANNA,Fluvanna,51065,VA,Virginia,USA,37.799176266,-78.368732337,221121,ELECTRIC BULK POWER TRANSMISSION AND CONTROL,IMAGERY,2014-08-15,IMAGERY/OTHER,2015-08-14,3.0,3,115.0,115,115.0,115,Y,Y,115 to 229,POINT (-78.36873233727675 37.79917626574325)
Bear Garden,BEAR GARDEN,146618,NEW CANTON,New Canton,23123,SUBSTATION,Substation,IN SERVICE,In service,BUCKINGHAM,Buckingham,51029,VA,Virginia,USA,37.697089661,-78.284321321,221121,ELECTRIC BULK POWER TRANSMISSION AND CONTROL,"IMAGERY, OpenStreetMap",2014-08-15,IMAGERY,2014-08-15,3.0,3,230.0,230,230.0,230,Y,Y,Min 230,POINT (-78.28432132144259 37.697089660979216)
Kidds Store,KIDDS STORE,146619,SCOTTSVILLE,Scottsville,24590,SUBSTATION,Substation,IN SERVICE,In service,FLUVANNA,Fluvanna,51065,VA,Virginia,USA,37.799537521,-78.368346619,221121,ELECTRIC BULK POWER TRANSMISSION AND CONTROL,"IMAGERY, OpenStreetMap",2014-08-15,IMAGERY,2014-08-15,1.0,1,115.0,115,115.0,115,Y,Y,115 to 229,POINT (-78.36834661866004 37.79953752086652)
Red Hill,RED HILL,146620,NORTH GARDEN,North Garden,22959,SUBSTATION,Substation,IN SERVICE,In service,ALBEMARLE,Albemarle,51003,VA,Virginia,USA,37.966764246,-78.626780579,221121,ELECTRIC BULK POWER TRANSMISSION AND CONTROL,"IMAGERY, OpenStreetMap",2015-03-16,IMAGERY,2015-03-16,1.0,1,115.0,115,115.0,115,Y,Y,115 to 229,POINT (-78.62678057928089 37.96676424572776)
Sherwood,SHERWOOD,146621,CHARLOTTESVILLE,Charlottesville,22903,SUBSTATION,Substation,IN SERVICE,In service,ALBEMARLE,Albemarle,51003,VA,Virginia,USA,38.021261642,-78.525988487,221121,ELECTRIC BULK POWER TRANSMISSION AND CONTROL,"IMAGERY, OpenStreetMap",2015-03-16,IMAGERY,2015-03-16,2.0,2,115.0,115,115.0,115,Y,Y,115 to 229,POINT (-78.52598848689846 38.021261642312055)
Proffit,PROFFIT,146622,CHARLOTTESVILLE,Charlottesville,22911,SUBSTATION,Substation,IN SERVICE,In service,ALBEMARLE,Albemarle,51003,VA,Virginia,USA,38.118575821,-78.415379366,221121,ELECTRIC BULK POWER TRANSMISSION AND CONTROL,"IMAGERY, OpenStreetMap",2015-03-17,IMAGERY,2015-03-17,2.0,2,230.0,230,230.0,230,Y,Y,Min 230,POINT (-78.4153793661393 38.11857582100557)
