year,pnode_id,pnode_name,type,avg_total_lmp,avg_energy,avg_congestion,avg_loss,hours,latitude,longitude,GEOID,NAME
2018,48907,GOSHEN,LOAD,34.209885831715944,35.69533051718232,-2.101719374357804,0.6161936294097501,8759,37.96834452,-79.5092247,51163930200,9302
2018,48908,GOSHEN,LOAD,34.20882520835711,35.69533051718232,-2.1017410663317735,0.6152083571183926,8759,37.96834452,-79.5092247,51163930200,9302
2018,49283,ROCKRIDG,LOAD,39.16844160292269,35.69533051718232,2.783760703276631,0.6894942345016554,8759,37.79844248,-79.41556716,51163930101,9301.01
2018,49284,ROCKRIDG,LOAD,39.16017581915744,35.69533051718232,2.783761844959472,0.6811919168854892,8759,37.79844248,-79.41556716,51163930101,9301.01
2018,49285,ROCKRIDG,LOAD,38.625710697568216,35.69533051718232,2.32930014841877,0.6012421509304712,8759,37.79844248,-79.41556716,51163930101,9301.01
2018,49434,HAMILTON,LOAD,32.37089393766412,35.69533051718232,-3.224790501198768,-0.0999474825893367,8759,39.14640845,-77.68039988,51107610201,6102.01
2018,49435,HAMILTON,LOAD,32.37089393766412,35.69533051718233,-3.224790501198768,-0.0999474825893366,8759,39.14640845,-77.68039988,51107610201,6102.01
2018,49880,CHINCOTE,LOAD,57.93158579746546,35.69533051718233,19.21364539330974,3.0228405069071806,8759,37.93421224,-75.37815417,51001090102,901.02
2018,49881,CHINCOTE,LOAD,57.93158579746546,35.69533051718233,19.21364539330974,3.0228405069071806,8759,37.93421224,-75.37815417,51001090102,901.02
2018,50021,TASLEY,LOAD,58.92892453476425,35.69533051718233,19.209082086996233,4.024799634661489,8759,37.70603558,-75.70276562,51001090500,905
2018,50022,TASLEY,LOAD,58.92894965178674,35.69533051718232,19.209082086996233,4.024824751683981,8759,37.70603558,-75.70276562,51001090500,905
2018,50023,TASLEY,LOAD,58.92894965178674,35.69533051718232,19.209082086996233,4.024824751683981,8759,37.70603558,-75.70276562,51001090500,905
2018,50033,WALLOPS,LOAD,57.48157552231985,35.69533051718231,19.21364767667542,2.572803973056286,8759,37.88098031,-75.52172576,51001090202,902.02
2018,50036,WATTSVIL,LOAD,57.46946911747918,35.69533051718231,19.213646534992584,2.560710126726795,8759,37.93480234,-75.50210517,51001090201,902.01
2018,50037,WATTSVIL,LOAD,57.46954104349813,35.69533051718231,19.213646534992584,2.5607809110629063,8759,37.93480234,-75.50210517,51001090201,902.01
2018,50607,HARRISBU,GEN,32.6414510788903,35.69533051718231,-3.2102329032994623,0.1560589108345701,8759,38.41132416,-78.8822805,51165011700,117
2018,50608,HARRISBU,GEN,32.6414510788903,35.69533051718231,-3.2102329032994623,0.1560589108345701,8759,38.41132416,-78.8822805,51165011700,117
2018,50738,HAMILTON,GEN,32.36558511245576,35.69533051718231,-3.224790501198768,-0.1052574494805342,8759,39.14640845,-77.68039988,51107610201,6102.01
2018,50924,TASLEY,GEN,58.92892453476425,35.69533051718231,19.209082086996233,4.024799634661489,8759,37.70603558,-75.70276562,51001090500,905
2018,93142,BURLINGT,GEN,33.28551090307113,35.69533051718231,-2.501551546980249,0.0914350953305173,8759,36.57215819,-78.44491332,51117930700,9307
2018,93143,BURLINGT,GEN,33.28553373672794,35.69533051718231,-2.501551546980249,0.0914590706701679,8759,36.57215819,-78.44491332,51117930700,9307
2018,93144,BURLINGT,GEN,33.28551775316817,35.69533051718231,-2.501551546980249,0.0914419454275603,8759,36.57215819,-78.44491332,51117930700,9307
2018,93145,BURLINGT,GEN,33.28553944514214,35.69533051718231,-2.501551546980249,0.0914624957186894,8759,36.57215819,-78.44491332,51117930700,9307
2018,93150,NEWCHURC,GEN,57.336294097499746,35.69533051718231,19.202774289302436,2.4384256193629414,8759,37.98867001,-75.53967558,51001090202,902.02
2018,93151,NEWCHURC,GEN,57.36321954561024,35.69533051718231,19.202774289302436,2.4653476424249345,8759,37.98867001,-75.53967558,51001090202,902.02
2018,93152,NEWCHURC,GEN,57.350272862198885,35.69533051718231,19.202774289302436,2.4524100924763106,8759,37.98867001,-75.53967558,51001090202,902.02
2018,205502,LAWRENCE,LOAD,34.08917113825778,35.69533051718231,-1.9617045324808764,0.3553202420367621,8759,36.74967218,-77.84646653,51025930203,9302.03
2018,205503,LAWRENCE,LOAD,34.08933439890397,35.69533051718231,-1.9617045324808764,0.3555017696084027,8759,36.74967218,-77.84646653,51025930203,9302.03
2018,1047929,HANOVER,LOAD,33.02593104235644,35.69533051718231,-2.560674734558739,-0.1089804772234273,8759,37.74069535,-77.46271479,51085320602,3206.02
2018,1047930,HANOVER,LOAD,32.904514213951366,35.69533051718231,-2.5694428587738325,-0.2218175590820871,8759,37.74069535,-77.46271479,51085320602,3206.02
2018,1048049,REDOAKA,GEN,34.022192031053756,35.69533051718231,-2.093891996803288,0.4206039502226281,8759,37.21217184,-81.75237776,51185020400,204
2018,1048050,REDOAKA,GEN,34.0217113825779,35.69533051718231,-2.093891996803288,0.4201404269893822,8759,37.21217184,-81.75237776,51185020400,204
2018,1048078,NEWCHURC,GEN,57.371298093389655,35.69533051718231,19.202774289302436,2.473434181984245,8759,37.98867001,-75.53967558,51001090202,902.02
2018,1048079,NEWCHURC,GEN,57.36540358488413,35.69533051718231,19.202720630208933,2.46763443315447,8759,37.98867001,-75.53967558,51001090202,902.02
2018,1048080,NEWCHURC,GEN,57.36776344331545,35.69533051718231,19.202720630208933,2.469979449708871,8759,37.98867001,-75.53967558,51001090202,902.02
2018,1048081,NEWCHURC,GEN,57.37244434296152,35.69533051718231,19.202720630208933,2.4746523575750654,8759,37.98867001,-75.53967558,51001090202,902.02
2018,5021016,SOUTHWES,LOAD,39.30793812079006,35.69533051718231,2.674882977508849,0.9379598127640142,8759,37.50207966,-77.5323324,51041100107,1001.07
2018,5021017,SOUTHWES,LOAD,39.30747916428817,35.69533051718231,2.674879552460328,0.9375099897248544,8759,37.50207966,-77.5323324,51041100107,1001.07
2018,5021018,SOUTHWES,LOAD,39.306923164744845,35.69533051718231,2.674970887087569,0.9368637972371272,8759,37.50207966,-77.5323324,51041100107,1001.07
2018,5021019,SOUTHWES,LOAD,39.30688320584543,35.69533051718232,2.675050804886404,0.9367462039045552,8759,37.50207966,-77.5323324,51041100107,1001.07
2018,5021036,GLASGOW,LOAD,33.72297180043386,35.69533051718232,-2.071919168854891,0.0993538075122727,8759,37.62484234,-79.48069516,51163930400,9304
2018,5021037,GLASGOW,LOAD,33.72297180043386,35.69533051718232,-2.071919168854891,0.0993538075122727,8759,37.62484234,-79.48069516,51163930400,9304
2018,5021066,BARTONVI,LOAD,37.60465121589221,35.69533051718232,1.7947162918141335,0.1146660577691517,8759,39.12957187,-78.20752686,51069050900,509
2018,5021067,BARTONVI,LOAD,37.60465121589221,35.69533051718232,1.7947162918141335,0.1146660577691517,8759,39.12957187,-78.20752686,51069050900,509
2018,5021139,CRAIGSVI,LOAD,36.33789359515927,35.69533051718232,0.4979906382007075,0.1446888914259618,8759,38.08285176,-79.38484134,51015070100,701
2018,5021155,DOUBLETO,LOAD,37.47957643566616,35.69533051718232,1.810694143167029,-0.0264368078547779,8759,39.06134905,-78.13704877,51043010200,102
2018,5021158,DUPONT,LOAD,34.85458613997031,35.69533051718232,-0.1149195113597437,-0.7259835597670964,8759,37.45327138,-77.43845776,51041100300,1003
2018,5021159,DUPONT,LOAD,34.853401073181864,35.69533051718232,-0.1159025002854203,-0.7261890626783876,8759,37.45327138,-77.43845776,51041100300,1003
2018,5021160,DUPONT,LOAD,34.85458613997031,35.69533051718232,-0.1149195113597437,-0.7259835597670964,8759,37.45327138,-77.43845776,51041100300,1003
2018,5021161,DUPONT,LOAD,34.853401073181864,35.69533051718232,-0.1159025002854203,-0.7261890626783876,8759,37.45327138,-77.43845776,51041100300,1003
2018,5021243,GORE APS,LOAD,38.05591734216235,35.69533051718232,1.846715378467863,0.514245918483845,8759,39.27620298,-78.36464218,51069050402,504.02
2018,5021244,GORE APS,LOAD,38.05591734216235,35.69533051718232,1.846715378467863,0.514245918483845,8759,39.27620298,-78.36464218,51069050402,504.02
2018,5021246,GRAFTON,LOAD,35.60984130608517,35.69533051718232,0.5444845301975109,-0.6302306199337822,8759,37.14913923,-76.4984995,51199050306,503.06
2018,5021247,GRAFTON,LOAD,35.60984130608517,35.69533051718232,0.5444845301975109,-0.6302306199337822,8759,37.14913923,-76.4984995,51199050306,503.06
2018,5021255,GREENWOO,LOAD,37.66437607032768,35.69533051718232,1.7916771320927052,0.1774334969745406,8759,39.15236609,-78.13148503,51069051001,510.01
2018,5021256,GREENWOO,LOAD,37.66437607032768,35.69533051718232,1.7916771320927052,0.1774334969745406,8759,39.15236609,-78.13148503,51069051001,510.01
2018,5021322,KLINESMI,LOAD,37.22740952163486,35.69533051718232,1.7478148190432692,-0.2157986071469345,8759,39.05412251,-78.25515661,51069050600,506
2018,5021428,NSHE APS,LOAD,39.339442858773815,35.69533051718232,3.442125813449022,0.2021338052289073,8759,38.52692713,-78.620324,51139030500,305
2018,5021429,NSHE APS,LOAD,39.33800548007762,35.69533051718232,3.44389998858317,0.1989245347642424,8759,38.52692713,-78.620324,51139030500,305
2018,5021440,OLDCHAPE,LOAD,37.7582440917913,35.69533051718232,1.9020664459413164,0.1610103893138485,8759,39.15975987,-78.00807123,51043010102,101.02
2018,5021441,OLDCHAPE,LOAD,37.7582440917913,35.69533051718232,1.9020664459413164,0.1610103893138485,8759,39.15975987,-78.00807123,51043010102,101.02
2018,5021451,PAGE,LOAD,38.86342048179016,35.69533051718232,2.690310537732618,0.4780111884918369,8759,38.6696023,-78.45205357,51139030100,301
2018,5021452,PAGE,LOAD,38.862292499143734,35.69533051718232,2.6898618563762997,0.4773318872017353,8759,38.6696023,-78.45205357,51139030100,301
2018,5021453,PAGE,LOAD,38.86342048179016,35.69533051718232,2.690310537732618,0.4780111884918369,8759,38.6696023,-78.45205357,51139030100,301
2018,5021485,REDBUD,LOAD,37.72847813677362,35.69533051718232,1.7780420139285316,0.2553693343989041,8759,39.21197165,-78.13499188,51069051102,511.02
2018,5021486,REDBUD,LOAD,37.72847813677362,35.69533051718232,1.7780420139285316,0.2553693343989041,8759,39.21197165,-78.13499188,51069051102,511.02
2018,5021496,RIVERTON,LOAD,37.58705559995432,35.69533051718232,1.888754424021006,0.0030494348669939,8759,38.96540748,-78.17722791,51187020200,202
2018,5021540,SPERRYVI,LOAD,38.950297979221354,35.69533051718232,2.690311679415459,0.564938919968033,8759,38.65846951,-78.22062419,51157950200,9502
2018,5021550,STRASBUR,LOAD,42.40274232218293,35.69533051718232,6.737441488754427,-0.0299394908094531,8759,39.00164336,-78.35871382,51171040102,401.02
2018,5021551,STRASBUR,LOAD,42.40062335883095,35.69533051718232,6.737665258591166,-0.0322765155839707,8759,39.00164336,-78.35871382,51171040102,401.02
2018,5021745,RIVERTON,GEN,37.58829775088479,35.69533051718232,1.888923393081401,0.0041214750542298,8759,38.96540748,-78.17722791,51187020200,202
2018,5022437,HARRISON,EHV,34.95406096586368,35.69533051718232,0.1720139285306538,-0.9134604406895768,8759,38.81146883,-77.45130042,51059491301,4913.01
2018,10700750,BELLEHAV,LOAD,59.20561707957531,35.69533051718232,19.20910834570157,4.301428245233472,8759,37.54846186,-75.79083453,51001090800,908
2018,10700799,BELLEHAV,GEN,59.20561707957531,35.69533051718232,19.20910834570157,4.301428245233472,8759,37.54846186,-75.79083453,51001090800,908
2018,21601652,PERDUE,LOAD,58.69445484644364,35.69533051718232,19.209080945313392,3.7902888457586497,8759,37.74189181,-75.65576839,51001090500,905
2018,31020629,GREENWOO,LOAD,37.66419454275605,35.69533051718232,1.7916782737755454,0.1772519694029,8759,39.15236609,-78.13148503,51069051001,510.01
2018,32410481,ABINGDON,LOAD,36.57054800776344,35.69533051718232,1.7532869048978188,-0.8782589336682267,8759,36.72004621,-82.00796658,51191010501,105.01
2018,32410483,ABINGDON,LOAD,36.57054800776344,35.69533051718232,1.7532869048978188,-0.8782589336682267,8759,36.72004621,-82.00796658,51191010501,105.01
2018,32410515,ALUMRIDG,LOAD,38.99528028313738,35.69533051718232,3.1556764470829997,0.1444708300034249,8759,36.97539425,-80.39842021,51063920104,9201.04
2018,32410623,BENTMOUN,LOAD,39.7697008790958,35.69533051718232,4.364281310651908,-0.2899805913917113,8759,37.1783679,-80.11946681,51161030601,306.01
2018,32410625,BENTMOUN,LOAD,39.7697008790958,35.69533051718232,4.364281310651908,-0.2899805913917113,8759,37.1783679,-80.11946681,51161030601,306.01
2018,32410675,BLAINE,LOAD,39.21487841077749,35.69533051718232,3.411504737983786,0.1082041328918826,8759,37.05067776,-79.86572137,51067020400,204
2018,32410677,BLAINE,LOAD,39.21487841077749,35.69533051718232,3.411504737983786,0.1082041328918826,8759,37.05067776,-79.86572137,51067020400,204
2018,32410697,BONSACK,LOAD,39.96268523804088,35.69533051718232,4.57128895992693,-0.3040369905240325,8759,37.33308427,-79.87011864,51023040501,405.01
2018,32410733,BROOKVI2,LOAD,37.870552574494795,35.69533051718232,2.0721828975910457,0.1031430528599155,8759,37.37363957,-79.20443788,51680000902,9.02
2018,32410741,BRUSHTAV,LOAD,38.09621646306656,35.69533051718232,2.202238840050233,0.1988457586482475,8759,37.32299812,-79.25871096,51031020402,204.02
2018,32410753,BUCKHORN,LOAD,38.28558967918712,35.69533051718232,2.675744948053431,-0.0853590592533394,8759,37.13548877,-81.49585152,51185021101,211.01
2018,32410763,BURLING2,LOAD,39.94838794382921,35.69533051718232,4.656239296723369,-0.4032697796552119,8759,37.36126087,-79.96992235,51161030100,301
2018,32410801,CANDLERS,LOAD,37.59518209841304,35.69533051718232,1.9855714122616728,-0.0856547551090307,8759,37.3265735,-79.15561081,51031020200,202
2018,32410837,CATAWBA,LOAD,40.01802374700309,35.69533051718232,4.385707272519694,-0.0630163260646192,8759,37.33191545,-80.02633098,51161030100,301
2018,32410839,CATAWBA,LOAD,40.684184267610455,35.69533051718232,4.456152528827494,0.5329478250941887,8759,37.33191545,-80.02633098,51161030100,301
2018,32410841,CAVESPRI,LOAD,40.06725653613425,35.69533051718232,4.31728279483959,0.0548464436579518,8759,37.22845744,-80.00854958,51161030803,308.03
2018,32410843,CAVESPRI,LOAD,40.06725653613425,35.69533051718232,4.31728279483959,0.0548464436579518,8759,37.22845744,-80.00854958,51161030803,308.03
2018,32410849,CELANESE,LOAD,39.30084027857059,35.69533051718232,3.281594930928189,0.3240278570613081,8759,37.34679794,-80.76819536,51071930300,9303
2018,32410851,CELANESE,LOAD,39.30084027857059,35.69533051718232,3.281594930928189,0.3240278570613081,8759,37.34679794,-80.76819536,51071930300,9303
2018,32410853,CELANESE,LOAD,39.30084027857059,35.69533051718232,3.281594930928189,0.3240278570613081,8759,37.34679794,-80.76819536,51071930300,9303
2018,32410905,CLAYPOOL,LOAD,36.05860600525174,35.69533051718232,1.0786927731476197,-0.7156319214522211,8759,37.04524508,-81.77546367,51185020600,206
2018,32410907,CLEARBRO,LOAD,39.89622445484646,35.69533051718232,4.243528941660001,-0.0425196940289987,8759,37.2196944,-79.95315672,51770002900,29
2018,32410947,COLUMBIA,LOAD,32.62005023404498,35.69533051718232,-1.7919020436122832,-1.2834889827605889,8759,37.76092745,-78.17341753,51065020200,202
2018,32410979,COPPERRI,LOAD,36.32931613197855,35.69533051718232,1.7507306770179234,-1.116926589793355,8759,36.79432976,-82.46473789,51169030400,304
2018,32411115,DICKENS,LOAD,36.36376869505654,35.69533051718232,1.8925082772005937,-1.224236785021121,8759,36.84326457,-82.22726173,51167030600,306
2018,32411165,EDGEMONT,LOAD,39.55262016211896,35.69533051718232,3.6173535791757057,0.2401872359858431,8759,37.10222454,-80.46710169,51121021501,215.01
2018,32411187,ELKGARD2,LOAD,37.27366251855235,35.69533051718232,2.6824363511816394,-1.1042367850211212,8759,36.91476406,-81.996991,51167030404,304.04
2018,32411189,ELKGARD2,LOAD,37.27366251855235,35.69533051718232,2.6824363511816394,-1.1042367850211212,8759,36.91476406,-81.996991,51167030404,304.04
2018,32411245,FALLINGB,LOAD,39.73701107432358,35.69533051718232,3.823111085740379,0.2187464322411235,8759,37.13830302,-80.33119304,51121020900,209
2018,32411253,FIELDALE,LOAD,38.1799235072497,35.69533051718232,2.611457928987325,-0.126786162803973,8759,36.70912544,-79.93445629,51089010100,101
2018,32411259,FIELDALE,LOAD,38.14428359401757,35.69533051718232,2.627237127525971,-0.1782098413060851,8759,36.70912544,-79.93445629,51089010100,101
2018,32411261,FIELDALE,LOAD,38.14428359401757,35.69533051718232,2.627237127525971,-0.1782098413060851,8759,36.70912544,-79.93445629,51089010100,101
2018,32411263,FIELDALE,LOAD,38.07842105263159,35.69533051718232,2.53543326863797,-0.1523335997259961,8759,36.70912544,-79.93445629,51089010100,101
2018,32411283,FLETCHER,LOAD,36.31813905696997,35.69533051718232,1.3753156753053997,-0.7525117022491155,8759,37.11397828,-82.06905292,51027010700,107
2018,32411289,FLOYD,LOAD,38.94751341477338,35.69533051718232,3.062105263157893,0.1902055029112911,8759,36.92592942,-80.30859177,51063920103,9201.03
2018,32411301,FOREST2,LOAD,38.16356433382806,35.69533051718232,2.24432811964836,0.2241043498116224,8759,37.36345077,-79.29310555,51019030103,301.03
2018,32411325,FREMONT,LOAD,36.36764927503139,35.69533051718232,1.241605206073753,-0.569251056056627,8759,37.1298211,-82.39644841,51051040300,403
2018,32411329,FRIES,LOAD,40.630977280511466,35.69533051718232,4.737533965064499,0.198256650302546,8759,36.71525958,-80.98805527,51077060101,601.01
2018,32411331,FRIES,LOAD,40.630977280511466,35.69533051718232,4.737533965064499,0.198256650302546,8759,36.71525958,-80.98805527,51077060101,601.01
2018,32411389,GLENLYN,LOAD,39.076328347984926,35.69533051718232,3.051744491380293,0.3294462838223539,8759,37.36974301,-80.86129938,51071930300,9303
2018,32411391,GLENLYN,LOAD,39.076328347984926,35.69533051718232,3.051744491380293,0.3294462838223539,8759,37.36974301,-80.86129938,51071930300,9303
2018,32411403,GOMINGO,LOAD,37.47443886288391,35.69533051718232,1.931886060052517,-0.1528051147391254,8759,37.42663253,-79.08461772,51009010600,106
2018,32411421,GRASSYCR,LOAD,36.09107089850439,35.69533051718232,1.00214065532595,-0.6064196826121698,8759,37.17466483,-81.92254075,51027010600,106
2018,32411425,GRAVESMI,LOAD,37.92741979678044,35.69533051718232,2.107839936065757,0.1244034707158352,8759,37.39562631,-79.23619671,51019030103,301.03
2018,32411427,GRAVESMI,LOAD,37.92741979678044,35.69533051718232,2.107839936065757,0.1244034707158352,8759,37.39562631,-79.23619671,51019030103,301.03
2018,32411469,HANCOCK,LOAD,40.154047265669575,35.69533051718232,4.360390455531453,0.098508962210298,8759,37.26744642,-80.02305441,51775010501,105.01
2018,32411471,HANCOCK,LOAD,40.154047265669575,35.69533051718232,4.360390455531453,0.098508962210298,8759,37.26744642,-80.02305441,51775010501,105.01
2018,32411473,HANCOCK,LOAD,40.154047265669575,35.69533051718232,4.360390455531453,0.098508962210298,8759,37.26744642,-80.02305441,51775010501,105.01
2018,32411475,HANCOCK,LOAD,40.154047265669575,35.69533051718232,4.360390455531453,0.098508962210298,8759,37.26744642,-80.02305441,51775010501,105.01
2018,32411477,HANCOCK,LOAD,40.154047265669575,35.69533051718232,4.360390455531453,0.098508962210298,8759,37.26744642,-80.02305441,51775010501,105.01
2018,32411603,HUFFMAN,LOAD,39.80051489896105,35.69533051718232,4.615437835369333,-0.510324237926704,8759,36.77730114,-80.71930201,51035080100,801
2018,32411605,HUFFMAN,LOAD,39.80051489896105,35.69533051718232,4.615437835369333,-0.510324237926704,8759,36.77730114,-80.71930201,51035080100,801
2018,32411615,HUNTINCT,LOAD,40.08758534079231,35.69533051718232,4.337910720401868,0.054457129809339,8759,37.30857259,-79.93011714,51770000400,4
2018,32411677,INGLESST,LOAD,39.15777600182671,35.69533051718232,3.330928188149334,0.1316999657495147,8759,37.11704384,-80.59313942,51750010202,102.02
2018,32411691,IVYHILL,LOAD,38.47523804087224,35.69533051718232,2.729344674049549,0.0506245005137572,8759,37.42575301,-79.29093033,51019030101,301.01
2018,32411713,JOHNSONM,LOAD,38.20440118735012,35.69533051718232,2.383100810594813,0.1261570955588537,8759,37.24017236,-79.30200924,51031020403,204.03
2018,32411753,KIMBALLT,LOAD,39.37537161776457,35.69533051718232,3.3438246375156973,0.336394565589679,8759,37.35329063,-80.66672838,51071930200,9302
2018,32411755,KIMBALLT,LOAD,39.37537161776457,35.69533051718232,3.3438246375156973,0.336394565589679,8759,37.35329063,-80.66672838,51071930200,9302
2018,32411769,KUMIS,LOAD,39.79639114054116,35.69533051718232,4.431355177531683,-0.3303288046580658,8759,37.23690882,-80.17753991,51161030300,303
2018,32411807,LEBANON,LOAD,36.889293298321725,35.69533051718232,2.368346843246942,-1.1746203904555308,8759,36.92264493,-82.07051379,51167030202,302.02
2018,32411847,LONESOME,LOAD,38.6163979906382,35.69533051718232,2.659544468546638,0.2616851238725881,8759,37.23666153,-81.31395374,51185020200,202
2018,32412009,MONEL,LOAD,37.805689005594246,35.69533051718232,2.1039981733074535,0.0064459413175019,8759,37.45648548,-79.12426127,51009010506,105.06
2018,32412011,MONETA,LOAD,38.87240438406209,35.69533051718232,3.480851695399017,-0.303646534992579,8759,37.19526388,-79.61744947,51019030501,305.01
2018,32412031,MOSELEY,LOAD,39.27306541842678,35.69533051718232,3.2586025802032204,0.31925676447083,8759,37.35232939,-79.56578353,51019030401,304.01
2018,32412079,NBLACKSB,LOAD,39.84156524717432,35.69533051718232,4.057483731019522,0.0889039844731134,8759,37.27708188,-80.38097126,51121020500,205
2018,32412117,NEWLONDO,LOAD,38.147192601895185,35.69533051718232,2.2487133234387464,0.2033131636031508,8759,37.32910871,-79.30879958,51019030203,302.03
2018,32412175,OAKLEVEL,LOAD,38.56668569471401,35.69533051718232,2.97086082886174,-0.0994828176732504,8759,36.82143927,-79.93027797,51067020702,207.02
2018,32412231,PEAKCREE,LOAD,37.99862769722572,35.69533051718232,2.544792784564447,-0.2414385203790388,8759,37.04844348,-80.74781265,51155210201,2102.01
2018,32412233,PEAKCREE,LOAD,37.99862769722572,35.69533051718232,2.544792784564447,-0.2414385203790388,8759,37.04844348,-80.74781265,51155210201,2102.01
2018,32412239,PENHOOK,LOAD,38.34546523575752,35.69533051718232,2.85416942573353,-0.2039490809453133,8759,36.97884841,-79.61653232,51067020102,201.02
2018,32412245,PETERSMO,LOAD,39.20025916200479,35.69533051718232,3.1666640027400383,0.3384541614339535,8759,37.37210044,-80.79814558,51071930300,9303
2018,32412261,PINNACLE,LOAD,35.43924991437378,35.69533051718232,-0.0538828633405644,-0.202227423221829,8759,36.6669097,-80.4479937,51141030201,302.01
2018,32412263,PINNACLE,LOAD,35.43924991437378,35.69533051718232,-0.0538828633405644,-0.202227423221829,8759,36.6669097,-80.4479937,51141030201,302.01
2018,32412265,PIPERSGA,LOAD,39.92029797922138,35.69533051718232,4.632950108459876,-0.4080979563877158,8759,36.75858586,-80.74842048,51035080200,802
2018,32412267,PIPERSGA,LOAD,39.92029797922138,35.69533051718232,4.632950108459876,-0.4080979563877158,8759,36.75858586,-80.74842048,51035080200,802
2018,32412275,POAGESMI,LOAD,39.97799177988352,35.69533051718232,4.399869848156185,-0.1171572097271378,8759,37.19948276,-80.0346502,51161030601,306.01
2018,32412319,RAVENSWO,LOAD,35.29904555314535,35.69533051718232,-1.0318483845187787,0.6358933668226966,8759,38.79675185,-77.24370308,51059430400,4304
2018,32412345,REUSENS,LOAD,38.06953076835256,35.69533051718232,2.2320732960383576,0.1422879324123759,8759,37.46249542,-79.18712614,51680000100,1
2018,32412347,REUSENS,LOAD,38.07110857403815,35.69533051718232,2.2320721543555173,0.1438942801689691,8759,37.46249542,-79.18712614,51680000100,1
2018,32412357,RIDGEWAY,LOAD,37.80117022491151,35.69533051718232,2.4410937321612027,-0.3353362255965292,8759,36.58641859,-79.8386542,51089010500,105
2018,32412377,RIVERVIL,LOAD,38.98247631008108,35.69533051718232,2.4072588194999405,0.8802237698367393,8759,37.5111295,-78.91198683,51009010202,102.02
2018,32412379,RIVERVIL,LOAD,38.98247631008108,35.69533051718232,2.4072588194999405,0.8802237698367393,8759,37.5111295,-78.91198683,51009010202,102.02
2018,32412381,RIVERVIL,LOAD,38.98247631008108,35.69533051718232,2.4072588194999405,0.8802237698367393,8759,37.5111295,-78.91198683,51009010202,102.02
2018,32412383,ROANELST,LOAD,40.12565932184036,35.69533051718232,4.358471286676564,0.0720755794040415,8759,37.27560807,-79.99904598,51770000900,9
2018,32412385,ROANELST,LOAD,40.12565932184036,35.69533051718232,4.358471286676564,0.0720755794040415,8759,37.27560807,-79.99904598,51770000900,9
2018,32412387,ROANELST,LOAD,40.12565932184036,35.69533051718232,4.358471286676564,0.0720755794040415,8759,37.27560807,-79.99904598,51770000900,9
2018,32412389,ROANOKE,LOAD,39.8764482246832,35.69533051718232,4.190440689576433,-0.009182555086197,8759,37.25039131,-79.9208591,51770002800,28
2018,32412407,ROCKCAST,LOAD,38.52508733873731,35.69533051718232,3.114196826121701,-0.284454846443658,8759,37.13219084,-79.57128068,51019030501,305.01
2018,32412459,RUSTBURG,LOAD,37.624650074209384,35.69533051718232,1.9855714122616728,-0.056202762872474,8759,37.27718258,-79.10626852,51031020101,201.01
2018,32412473,SALTVILL,LOAD,38.82313848612855,35.69533051718232,4.087109259047836,-0.9595182098413068,8759,36.89548797,-81.75334542,51173030200,302
2018,32412475,SALTVILL,LOAD,38.54789930357346,35.69533051718232,3.8148921109715728,-0.9625493777828528,8759,36.89548797,-81.75334542,51173030200,302
2018,32412515,SCHRISTI,LOAD,39.53971457928988,35.69533051718232,3.9259858431327785,-0.0815424135175248,8759,37.1192675,-80.39790868,51121021000,210
2018,32412561,SHANNON,LOAD,34.61411119990864,35.69533051718232,-0.6077314761959108,-0.4734661491037792,8759,37.88256715,-78.04595556,51075400500,4005
2018,32412571,SHAWSVIL,LOAD,39.75792670396164,35.69533051718232,3.975660463523234,0.0870521749058111,8759,37.14759537,-80.26555339,51121021400,214
2018,32412597,SKIMMER,LOAD,39.040979563877166,35.69533051718232,2.5162187464322368,0.8297077291928298,8759,37.52011721,-79.35164297,51019030300,303
2018,32412609,SLYNCHBU,LOAD,37.823080260303705,35.69533051718232,2.0450907637858178,0.0828039730562849,8759,37.36193425,-79.17982079,51680001601,16.01
2018,32412611,SLYNCHBU,LOAD,37.823080260303705,35.69533051718232,2.0450907637858178,0.0828039730562849,8759,37.36193425,-79.17982079,51680001601,16.01
2018,32412615,SLYNCHBU,LOAD,37.92863112227422,35.69533051718232,2.071702249115194,0.1617433496974539,8759,37.36193425,-79.17982079,51680001601,16.01
2018,32412617,SLYNCHBU,LOAD,37.88316017810249,35.69533051718232,2.0595330517182293,0.1284142025345359,8759,37.36193425,-79.17982079,51680001601,16.01
2018,32412619,SLYNCHBU,LOAD,37.88316017810249,35.69533051718232,2.0595330517182293,0.1284142025345359,8759,37.36193425,-79.17982079,51680001601,16.01
2018,32412685,STARKEY,LOAD,40.05418312592764,35.69533051718232,4.383496974540475,-0.0246626327206302,8759,37.21172208,-79.9872354,51161030802,308.02
2018,32412799,TANKHILL,LOAD,39.034732275373905,35.69533051718232,3.3719499942915823,-0.0324603265212923,8759,37.00202307,-79.89815497,51067020802,208.02
2018,32412803,TAZEWELL,LOAD,37.984660349354975,35.69533051718232,2.623887430071926,-0.3346808996460781,8759,37.14809388,-81.54568417,51185020302,203.02
2018,32412805,TAZEWELL,LOAD,37.984660349354975,35.69533051718232,2.623887430071926,-0.3346808996460781,8759,37.14809388,-81.54568417,51185020302,203.02
2018,32412829,THORNTON,LOAD,38.90508048864023,35.69533051718232,3.119256764470828,0.0906176504167142,8759,36.92493006,-79.92403451,51067020702,207.02
2018,32412863,TRABUE,LOAD,34.80795182098415,35.69533051718232,-0.5740187235985829,-0.3131989953191001,8759,37.50726651,-77.62899297,51041100915,1009.15
2018,32412865,TRABUE,LOAD,34.80795182098415,35.69533051718232,-0.5740187235985829,-0.3131989953191001,8759,37.50726651,-77.62899297,51041100915,1009.15
2018,32412867,TRABUE,LOAD,34.80795182098415,35.69533051718232,-0.5740187235985829,-0.3131989953191001,8759,37.50726651,-77.62899297,51041100915,1009.15
2018,32412877,TURNER,LOAD,32.85284964036993,35.69533051718232,-1.597318187007647,-1.2454207101267272,8759,37.44748273,-77.30143635,51087201601,2016.01
2018,32412881,TURNER,LOAD,32.85284964036993,35.69533051718232,-1.597318187007647,-1.2454207101267272,8759,37.44748273,-77.30143635,51087201601,2016.01
2018,32412919,VICKER,LOAD,39.68409635803174,35.69533051718232,3.685661605206074,0.3033576892339304,8759,37.16524664,-80.44405861,51121021102,211.02
2018,32412927,VINTON,LOAD,39.9449217947254,35.69533051718232,4.316492750313958,-0.0669003310880237,8759,37.26829925,-79.86295506,51161031201,312.01
2018,32412929,VINTON,LOAD,39.9449217947254,35.69533051718232,4.316492750313958,-0.0669003310880237,8759,37.26829925,-79.86295506,51161031201,312.01
2018,32412937,WAKEFIEL,LOAD,33.72520607375271,35.69533051718232,-0.8577063591734205,-1.1126612627012222,8759,36.89790269,-76.89784094,51175200100,2001
2018,32413093,WSALEM,LOAD,39.86857517981504,35.69533051718232,4.532741180500059,-0.3595079346957413,8759,37.29987475,-80.12589238,51161030300,303
2018,32413103,WURNO,LOAD,38.27696198196141,35.69533051718232,2.7143897705217483,-0.1327343304030139,8759,37.07469255,-80.71740545,51155210202,2102.02
2018,32413105,WURNO,LOAD,38.27696198196141,35.69533051718232,2.714389770521748,-0.1327343304030139,8759,37.07469255,-80.71740545,51155210202,2102.02
2018,32413115,WYTHE,LOAD,40.42868249800206,35.69533051718232,4.778786391140542,-0.0454355520036534,8759,36.9484324,-81.06049947,51197050201,502.01
2018,32413117,WYTHE,LOAD,40.305327092133815,35.69533051718232,4.778789816189065,-0.1687624158008905,8759,36.9484324,-81.06049947,51197050201,502.01
2018,32416457,PHILPOTT,LOAD,38.44104121475055,35.69533051718233,2.773221828975908,-0.0274197967804543,8759,36.77607146,-80.02717068,51089011200,112
2018,32418329,BUCK,GEN,40.161558397077286,35.69533051718233,4.750798036305518,-0.2847197168626556,8759,36.80809818,-80.93872682,51035080300,803
2018,32418331,BUCK,GEN,40.161558397077286,35.69533051718233,4.750798036305518,-0.2847197168626556,8759,36.80809818,-80.93872682,51035080300,803
2018,32418333,BUCK,GEN,40.161558397077286,35.69533051718233,4.750798036305518,-0.2847197168626556,8759,36.80809818,-80.93872682,51035080300,803
2018,32418335,BYLLESBY,GEN,40.161558397077286,35.69533051718233,4.750798036305518,-0.2847197168626556,8759,36.78448551,-80.93530349,51035080300,803
2018,32418337,BYLLESBY,GEN,40.161558397077286,35.69533051718233,4.750798036305518,-0.2847197168626556,8759,36.78448551,-80.93530349,51035080300,803
2018,32418339,BYLLESBY,GEN,40.161558397077286,35.69533051718233,4.750798036305518,-0.2847197168626556,8759,36.78448551,-80.93530349,51035080300,803
2018,32418341,BYLLESBY,GEN,40.161558397077286,35.69533051718233,4.750798036305518,-0.2847197168626556,8759,36.78448551,-80.93530349,51035080300,803
2018,32418343,CLAYTOR,GEN,39.10912318757846,35.69533051718233,3.3519397191460207,0.0620025117022491,8759,37.07467364,-80.58412392,51155210500,2105
2018,32418345,CLAYTOR,GEN,39.10912318757846,35.69533051718233,3.3519397191460207,0.0620025117022491,8759,37.07467364,-80.58412392,51155210500,2105
2018,32418347,CLAYTOR,GEN,39.07896335198083,35.69533051718233,3.351906610343646,0.0318472428359401,8759,37.07467364,-80.58412392,51155210500,2105
2018,32418349,CLAYTOR,GEN,39.07896335198083,35.69533051718233,3.351906610343646,0.0318472428359401,8759,37.07467364,-80.58412392,51155210500,2105
2018,32418441,LEESVILL,GEN,38.152767439205384,35.69533051718233,2.6549583285763223,-0.1975054229934922,8759,37.09398001,-79.40332373,51031020600,206
2018,32418443,LEESVILL,GEN,38.152767439205384,35.69533051718233,2.6549583285763223,-0.1975054229934922,8759,37.09398001,-79.40332373,51031020600,206
2018,32418507,REUSENS,GEN,38.07190889370934,35.69533051718233,2.232091562963806,0.1446729078661948,8759,37.46249542,-79.18712614,51680000100,1
2018,32418509,REUSENS,GEN,38.07190889370934,35.69533051718233,2.232091562963806,0.1446729078661948,8759,37.46249542,-79.18712614,51680000100,1
2018,32418511,REUSENS,GEN,38.07190889370934,35.69533051718233,2.232091562963806,0.1446729078661948,8759,37.46249542,-79.18712614,51680000100,1
2018,32418513,REUSENS,GEN,38.07190889370934,35.69533051718233,2.232091562963806,0.1446729078661948,8759,37.46249542,-79.18712614,51680000100,1
2018,32418515,REUSENS,GEN,38.07190889370934,35.69533051718233,2.232091562963806,0.1446729078661948,8759,37.46249542,-79.18712614,51680000100,1
2018,33884119,RIVERTON,LOAD,37.588297750884784,35.69533051718233,1.888923393081401,0.0041214750542298,8759,38.96540748,-78.17722791,51187020200,202
2018,34509177,AXTON,EHV,36.362189747688085,35.69533051718233,1.5284336111428227,-0.8617593332572214,8759,36.63455031,-79.7047789,51089010500,105
2018,34509181,BROADFORD,EHV,36.20067701792441,35.69533051718233,1.5797568215549742,-1.0746911747916428,8759,36.92167698,-81.67964533,51173030200,302
2018,34509183,CLOVERDALE,EHV,35.743283479849296,35.69533051718233,0.6023575750656456,-0.5545050804886402,8759,37.37447117,-79.90058706,51023040402,404.02
2018,34509195,JACKSONS FERRY,EHV,36.22251512729765,35.69533051718233,1.4399474825893377,-0.9128621988811508,8759,36.8791622,-80.82317025,51197050402,504.02
2018,34509197,JEFFERSON,EHV,31.247587624158008,35.69533051718233,-2.6665030254595266,-1.7815823724169435,8759,38.797078,-77.05484794,51510200703,2007.03
2018,34509199,JOSHUA FALLS,EHV,36.04834912661264,35.69533051718233,0.8033188720173517,-0.4504178559196253,8759,37.42539439,-79.03621227,51031020101,201.01
2018,34885183,ACCA,LOAD,38.94322753739011,35.69533051718233,3.0862267382121216,0.161752483160178,8759,37.57993938,-77.47755036,51087200502,2005.02
2018,34885185,ACCA,LOAD,38.99314990295694,35.69533051718233,3.0862335883091654,0.2116508733873729,8759,37.57993938,-77.47755036,51087200502,2005.02
2018,34885187,ACCA,LOAD,39.029344674049554,35.69533051718233,3.0862335883091654,0.2479072953533508,8759,37.57993938,-77.47755036,51087200502,2005.02
2018,34885189,ACCA,LOAD,39.00507592190891,35.69533051718233,3.0862301632606437,0.2235894508505536,8759,37.57993938,-77.47755036,51087200502,2005.02
2018,34885191,ACCA,LOAD,39.01129809338966,35.69533051718233,3.086230163260643,0.2297796552117821,8759,37.57993938,-77.47755036,51087200502,2005.02
2018,34885193,ALLIED,LOAD,38.65973056284961,35.69533051718233,3.0286368306884337,-0.0642915857974654,8759,37.33627018,-77.28109658,51041100403,1004.03
2018,34885195,ALLIED,LOAD,38.658828633405626,35.69533051718233,3.0286345473227527,-0.065216348898276,8759,37.33627018,-77.28109658,51041100403,1004.03
2018,34885197,ALLIED,LOAD,38.65973056284961,35.69533051718233,3.0286368306884337,-0.0642915857974654,8759,37.33627018,-77.28109658,51041100403,1004.03
2018,34885199,ALPINE,LOAD,38.662498002054996,35.69533051718233,3.0278228108231517,-0.0606313506108002,8759,37.34223674,-77.28516339,51041100403,1004.03
2018,34885201,ALPINE,LOAD,38.66258134490236,35.69533051718233,3.027823952505992,-0.0605639913232104,8759,37.34223674,-77.28516339,51041100403,1004.03
2018,34885203,ALPINE,LOAD,38.662498002054996,35.69533051718233,3.0278228108231517,-0.0606313506108002,8759,37.34223674,-77.28516339,51041100403,1004.03
2018,34885209,BANISTE4,LOAD,37.00076378582027,35.69533051718233,1.6634615823724148,-0.3580808311451077,8759,36.75052076,-79.40617252,51143010900,109
2018,34885213,BASIN,LOAD,38.835668455303136,35.69533051718233,2.986747345587393,0.1537412946683412,8759,37.49209701,-77.43067209,51760060800,608
2018,34885215,BASIN,LOAD,38.83456102294783,35.69533051718233,2.987385546295236,0.1518677931270692,8759,37.49209701,-77.43067209,51760060800,608
2018,34885217,BASIN,LOAD,38.92061308368536,35.69533051718233,2.9873912547094386,0.2380374471971685,8759,37.49209701,-77.43067209,51760060800,608
2018,34885219,BEECHDP,LOAD,38.31096700536592,35.69533051718233,2.94408265783765,-0.3284678616280397,8759,36.62635991,-78.19166045,51117930300,9303
2018,34885223,BELLWOOD,LOAD,38.92445712980933,35.69533051718233,3.0113460440689575,0.2179301290101609,8759,37.41737781,-77.43269174,51041100404,1004.04
2018,34885225,BELLWOOD,LOAD,38.96790957871902,35.69533051718233,3.0113449023861167,0.2614487955246032,8759,37.41737781,-77.43269174,51041100404,1004.04
2018,34885233,BRODNAX,LOAD,38.9800091334627,35.69533051718233,2.9607283936522437,0.3240895079346957,8759,36.73435143,-78.01111496,51025930302,9303.02
2018,34885243,CARVER,LOAD,38.975750656467625,35.69533051718233,3.0766514442287916,0.2039296723370247,8759,37.55573235,-77.44835885,51760040201,402.01
2018,34885245,CARVER,LOAD,38.987523689918945,35.69533051718233,3.0767633291471608,0.2155485786048634,8759,37.55573235,-77.44835885,51760040201,402.01
2018,34885247,CARVER,LOAD,38.99852494577006,35.69533051718233,3.0767633291471617,0.2265681013814363,8759,37.55573235,-77.44835885,51760040201,402.01
2018,34885249,CARVER,LOAD,39.341315218632246,35.69533051718233,3.0766617193743566,0.5695227765726681,8759,37.55573235,-77.44835885,51760040201,402.01
2018,34885255,CENTRLIA,LOAD,38.94523575750657,35.69533051718233,2.999804772234272,0.2502203447882179,8759,37.37949755,-77.45344475,51041100409,1004.09
2018,34885257,CENTRLIA,LOAD,38.90182212581346,35.69533051718233,2.9998059139171125,0.2068341134832741,8759,37.37949755,-77.45344475,51041100409,1004.09
2018,34885261,CHASECTY,LOAD,38.83571412261675,35.69533051718233,3.134315561137114,0.0061228450736385,8759,36.8090598,-78.46555155,51117930402,9304.02
2018,34885265,CHATHAM4,LOAD,38.915668455303106,35.69533051718233,2.525744948053429,0.6947425505194654,8759,36.84947605,-79.38763529,51143010500,105
2018,34885303,CLIMAXDP,LOAD,38.937475739239645,35.69533051718233,2.525691288959925,0.7167142367850207,8759,36.84785331,-79.47077898,51143010500,105
2018,34885313,CREWE,LOAD,39.39892567644707,35.69533051718233,3.125186665144422,0.5785272291357467,8759,37.16504501,-78.13068406,51135000300,3
2018,34885319,DANLTNDP,LOAD,39.82498801233018,35.69533051718233,2.9341317501997928,1.195818015755223,8759,36.90325194,-77.99377321,51025930100,9301
2018,34885321,DISPUTNT,LOAD,38.563478707615026,35.69533051718233,2.8467587624157975,0.0214396620618792,8759,37.1102893,-77.22521267,51149850501,8505.01
2018,34885325,DRYBURG,LOAD,38.70059824180843,35.69533051718233,3.413710469231648,-0.4085991551546978,8759,36.82004704,-78.73600977,51083930100,9301
2018,34885327,DRYBURG,LOAD,38.70059824180843,35.69533051718233,3.413710469231648,-0.4085991551546978,8759,36.82004704,-78.73600977,51083930100,9301
2018,34885329,DUNNSVIL,LOAD,39.164007306770195,35.69533051718233,2.8753487841077736,0.5935803173878293,8759,37.85277896,-76.81263913,51057950800,9508
2018,34885343,EMPORIA,LOAD,38.78052289074095,35.69533051718233,2.7975807740609646,0.2876903756136545,8759,36.69586061,-77.5596501,51595890200,8902
2018,34885345,ENON4,LOAD,38.82076721086883,35.69533051718233,3.0305011987669817,0.0950450964722,8759,37.33964444,-77.32325939,51041100403,1004.03
2018,34885349,FARMVILL,LOAD,38.729015869391475,35.69533051718233,3.2462632720630213,-0.2125847699509076,8759,37.31142158,-78.3930341,51049930200,9302
2018,34885351,FARMVILL,LOAD,38.74091106290674,35.69533051718233,3.2462632720630213,-0.200826578376527,8759,37.31142158,-78.3930341,51049930200,9302
2018,34885353,FARMVILL,LOAD,38.38489667770293,35.69533051718233,3.0816166229021595,-0.3921646306656009,8759,37.31142158,-78.3930341,51049930200,9302
2018,34885359,FOURRIVR,LOAD,38.04895079346957,35.69533051718233,2.772147505422993,-0.4187315903641969,8759,37.82178788,-77.44353517,51085320100,3201
2018,34885363,FTPICKET,LOAD,39.391111999086654,35.69533051718233,3.1250039958899407,0.5708368535220916,8759,37.12094649,-77.93804953,51135980100,9801
2018,34885365,FTPICKET,LOAD,39.14550291129124,35.69533051718233,3.1250062792556212,0.325257449480534,8759,37.12094649,-77.93804953,51135980100,9801
2018,34885367,GARNERDP,LOAD,39.641116565818,35.69533051718233,2.866417399246486,1.0797705217490583,8759,37.89372551,-76.50641924,51133020200,202
2018,34885377,GRETNA,LOAD,39.53329603836053,35.69533051718233,2.525807740609657,1.312436351181642,8759,36.93689888,-79.36244031,51143010600,106
2018,34885381,GRITDP,LOAD,38.619953191003546,35.69533051718233,2.997379837881034,-0.0726566959698595,8759,37.05422683,-79.25305614,51143010100,101
2018,34885393,HARMONYV,LOAD,39.31838109373217,35.69533051718233,2.9776252996917436,0.645635346500742,8759,37.58231166,-76.48478139,51119951100,9511
2018,34885395,HARVELL,LOAD,38.76243406781597,35.69533051718233,2.9021646306656,0.1650165544011873,8759,37.25649655,-77.37203088,51149850100,8501
2018,34885397,HARVELL,LOAD,38.65432926133119,35.69533051718233,2.902169197396962,0.0568147048749856,8759,37.25649655,-77.37203088,51149850100,8501
2018,34885399,HARWGATE,LOAD,38.90407694942345,35.69533051718233,2.943557483731016,0.2653739011302661,8759,37.29185054,-77.41912399,51041100507,1005.07
2018,34885401,HARWGATE,LOAD,38.85520036533851,35.69533051718233,2.9435597670966973,0.2164733417056741,8759,37.29185054,-77.41912399,51041100507,1005.07
2018,34885403,HARWGATE,LOAD,38.56620276287245,35.69533051718233,2.905183240095901,-0.0342961525288275,8759,37.29185054,-77.41912399,51041100507,1005.07
2018,34885405,HAYES,LOAD,39.64538988469003,35.69533051718233,2.918721315218629,1.031677132092705,8759,37.27920313,-76.49480811,51073100400,1004
2018,34885407,HAYES,LOAD,39.38567073866879,35.69533051718233,2.9187201735357893,0.771911177075009,8759,37.27920313,-76.49480811,51073100400,1004
2018,34885421,HULLSTR,LOAD,38.74557597899304,35.69533051718233,2.9705354492521936,0.0796529284164858,8759,37.44443045,-77.57657806,51041100812,1008.12
2018,34885423,HULLSTR,LOAD,38.92794382920423,35.69533051718233,3.0239662061879193,0.2087247402671538,8759,37.44443045,-77.57657806,51041100812,1008.12
2018,34885425,HULLSTR,LOAD,38.83638885717548,35.69533051718233,2.9705411576663963,0.1705662746888915,8759,37.44443045,-77.57657806,51041100812,1008.12
2018,34885431,IRONBRI4,LOAD,38.799053544925194,35.69533051718233,2.97390227194885,0.1299554743692201,8759,37.40862166,-77.50466853,51041100820,1008.20
2018,34885433,IRONBRI4,LOAD,38.845440118735006,35.69533051718233,3.0392190889370916,0.1109453133919397,8759,37.40862166,-77.50466853,51041100820,1008.20
2018,34885435,IRONBRI4,LOAD,38.85149103778969,35.69533051718233,3.040777486014384,0.1154035848841192,8759,37.40862166,-77.50466853,51041100820,1008.20
2018,34885441,JARRATT,LOAD,38.529369791072035,35.69533051718233,2.806729078661947,0.0272748030597101,8759,36.82027337,-77.48376492,51081880101,8801.01
2018,34885443,JARRATT,LOAD,38.529369791072035,35.69533051718233,2.806729078661947,0.0272748030597101,8759,36.82027337,-77.48376492,51081880101,8801.01
2018,34885445,JARRATT,LOAD,38.529369791072035,35.69533051718233,2.806729078661947,0.0272748030597101,8759,36.82027337,-77.48376492,51081880101,8801.01
2018,34885447,JARRATT,LOAD,38.529369791072035,35.69533051718233,2.806729078661947,0.0272748030597101,8759,36.82027337,-77.48376492,51081880101,8801.01
2018,34885449,JETERSVL,LOAD,39.07423564333828,35.69533051718233,3.2766114853293753,0.1024009590135858,8759,37.28060252,-78.11164197,51007930200,9302
2018,34885453,KDOMINDP,LOAD,38.5622605320242,35.69533051718233,2.9450028542070967,-0.0780614225368193,8759,37.84628421,-77.44170624,51085320100,3201
2018,34885455,KENBRIDG,LOAD,39.09216006393424,35.69533051718233,3.1382018495262014,0.2587133234387487,8759,36.9596282,-78.13172368,51111930100,9301
2018,34885459,KEVLAR,LOAD,38.83446169654071,35.69533051718233,2.985744948053429,0.1535483502682954,8759,37.45005506,-77.43748999,51041100300,1003
2018,34885461,KEVLAR,LOAD,38.835178673364545,35.69533051718233,2.9857472314191105,0.1542493435323667,8759,37.45005506,-77.43748999,51041100300,1003
2018,34885471,LAKESID4,LOAD,38.872415800890515,35.69533051718233,3.0814031282109804,0.0956570384747116,8759,37.61688513,-77.46011624,51087200700,2007
2018,34885473,LAKESID4,LOAD,38.960968147048725,35.69533051718233,3.08140426989382,0.1842801689690602,8759,37.61688513,-77.46011624,51087200700,2007
2018,34885475,LAKESID4,LOAD,38.85875214065535,35.69533051718233,3.067995204932069,0.0954698024888684,8759,37.61688513,-77.46011624,51087200700,2007
2018,34885477,LAKESID4,LOAD,38.88541842676105,35.69533051718233,3.067995204932069,0.1221395136431099,8759,37.61688513,-77.46011624,51087200700,2007
2018,34885489,LOCKS,LOAD,38.742484301860955,35.69533051718233,2.907500856262129,0.1396654869277315,8759,37.22197699,-77.44356458,51730810300,8103
2018,34885491,LOCKS,LOAD,38.685723256079456,35.69533051718233,2.9075019979449706,0.0828816074894395,8759,37.22197699,-77.44356458,51730810300,8103
2018,34885493,LOCKS,LOAD,38.602762872474024,35.69533051718233,2.9075031396278104,-0.0001141682840506,8759,37.22197699,-77.44356458,51730810300,8103
2018,34885497,MANCHSTR,LOAD,38.83131521863228,35.69533051718233,2.9865749514784774,0.1495695855691288,8759,37.49546269,-77.43218906,51760060700,607
2018,34885499,MANCHSTR,LOAD,38.856606918598025,35.69533051718233,2.986585226624042,0.1748772690946454,8759,37.49546269,-77.43218906,51760060700,607
2018,34885505,MARLBORO,LOAD,38.81072040187237,35.69533051718233,2.9860680442972933,0.129409749971458,8759,37.47400671,-77.43489524,51760060800,608
2018,34885507,MARLBORO,LOAD,38.80508505537161,35.69533051718233,2.9860669026144526,0.123729877839936,8759,37.47400671,-77.43489524,51760060800,608
2018,34885525,MTNROAD,LOAD,38.89543098527229,35.69533051718233,3.0874780226053185,0.1127172051604065,8759,37.67043029,-77.52191006,51087200416,2004.16
2018,34885527,MTNROAD,LOAD,38.904430871104005,35.69533051718233,3.0739901815275688,0.1352700079917798,8759,37.67043029,-77.52191006,51087200416,2004.16
2018,34885541,NATWELDR,LOAD,38.65140997830803,35.69533051718233,3.029594702591619,-0.0735129581002397,8759,37.33836845,-77.29775811,51041100403,1004.03
2018,34885545,NDOSWLDP,LOAD,38.6132606461925,35.69533051718233,2.949878981618904,-0.0318986185637627,8759,37.88319273,-77.46122386,51085320100,3201
2018,34885555,NPOLE,LOAD,38.72541500171252,35.69533051718233,3.001036648019176,0.0290192944400045,8759,37.6362189,-77.79385635,51075400200,4002
2018,34885559,NRTHNECK,LOAD,39.434771092590495,35.69533051718233,2.8668044297294175,0.8729044411462499,8759,37.94847795,-76.71203979,51159040100,401
2018,34885561,NRTHNECK,LOAD,39.347906153670515,35.69533051718233,2.866782737755448,0.7860771777600188,8759,37.94847795,-76.71203979,51159040100,401
2018,34885569,NWEST,LOAD,38.78877611599498,35.69533051718233,3.079459984016438,0.0139308140198652,8759,37.63046819,-77.54155697,51087200126,2001.26
2018,34885571,NWEST,LOAD,38.90704532480878,35.69533051718233,3.0760075351067457,0.1357301061765041,8759,37.63046819,-77.54155697,51087200126,2001.26
2018,34885573,NWEST,LOAD,38.97154013015184,35.69533051718233,3.076007535106746,0.2003516383148762,8759,37.63046819,-77.54155697,51087200126,2001.26
2018,34885575,OLDCHRCH,LOAD,38.88391597214296,35.69533051718233,3.0535426418540923,0.1351135974426303,8759,37.63455996,-77.25058771,51085321402,3214.02
2018,34885577,OMEGADP,LOAD,38.47924420595957,35.69533051718233,3.3874015298550053,-0.603586025802032,8759,36.67050094,-78.81133379,51083930400,9304
2018,34885579,OTTERRIV,LOAD,38.722946683411344,35.69533051718233,2.9221943144194493,0.1056570384747117,8759,37.11776583,-79.27597003,51031020700,207
2018,34885581,OTTERRIV,LOAD,38.76353350839138,35.69533051718233,2.9221920310537683,0.1461251284393196,8759,37.11776583,-79.27597003,51031020700,207
2018,34885591,PEARSON,LOAD,38.81798036305513,35.69533051718233,3.0774289302431757,0.0452700079917799,8759,37.67124566,-77.37924539,51085320901,3209.01
2018,34885593,PERTH,LOAD,39.01080945313392,35.69533051718233,3.270841420253453,0.044811051489896,8759,37.01366302,-79.00402362,51083930203,9302.03
2018,34885595,PERTH,LOAD,38.93310423564334,35.69533051718233,3.270841420253453,-0.0328724740267153,8759,37.01366302,-79.00402362,51083930203,9302.03
2018,34885597,PIPELINE,LOAD,38.77069071811852,35.69533051718233,2.9867564790501184,0.0886984815618221,8759,37.52167631,-77.4259527,51760060700,607
2018,34885599,PLAZA,LOAD,38.92203447882179,35.69533051718233,3.028826350039958,0.1980351638314876,8759,37.49803979,-77.47818438,51760070601,706.01
2018,34885601,PLAZA,LOAD,38.88744263043724,35.69533051718233,3.028825208357117,0.1634524489096928,8759,37.49803979,-77.47818438,51760070601,706.01
2018,34885603,PLAZA,LOAD,39.006328347984955,35.69533051718233,3.041048064847585,0.2700867678958786,8759,37.49803979,-77.47818438,51760070601,706.01
2018,34885605,PLESNTH4,LOAD,38.53624386345472,35.69533051718233,2.7344034707158347,0.1066366023518667,8759,36.55111147,-77.52904785,51081880200,8802
2018,34885607,POE,LOAD,38.399907523689905,35.69533051718233,2.8689827605891063,-0.1645164973170453,8759,37.19995371,-77.35909115,51730811200,8112
2018,34885609,POE,LOAD,38.46435323667085,35.69533051718233,2.869344674049547,-0.100321954561023,8759,37.19995371,-77.35909115,51730811200,8112
2018,34885619,REAMSDP,LOAD,38.58747573923963,35.69533051718233,2.90342847357004,-0.0112832515127296,8759,37.08919504,-77.42517513,51053840602,8406.02
2018,34885623,REEDYCRK,LOAD,38.63989839022721,35.69533051718232,3.4490284279027272,-0.5045073638543213,8759,36.69771299,-78.87641442,51083930500,9305
2018,34885625,REYMET,LOAD,38.69497202877037,35.69533051718232,2.985944742550518,0.0137572782281082,8759,37.38896585,-77.40747616,51041100403,1004.03
2018,34885627,RIVERRD,LOAD,38.89047379837879,35.69533051718232,3.0629523918255503,0.1322262815389884,8759,37.5744277,-77.5751679,51087200109,2001.09
2018,34885629,RIVERRD,LOAD,38.89047379837879,35.69533051718232,3.0629523918255503,0.1322262815389884,8759,37.5744277,-77.5751679,51087200109,2001.09
2018,34885631,RIVERRD,LOAD,38.97725311108575,35.69533051718232,3.061779883548348,0.2202420367621875,8759,37.5744277,-77.5751679,51087200109,2001.09
2018,34885633,RIVERRD,LOAD,39.02645279141455,35.69533051718232,3.061781025231189,0.2694405754081518,8759,37.5744277,-77.5751679,51087200109,2001.09
2018,34885637,SAPONY,LOAD,38.461301518438155,35.69533051718232,2.861393994748257,-0.0954024432012787,8759,36.94478174,-77.47668023,51183870100,8701
2018,34885639,SAPONY,LOAD,38.39111428245232,35.69533051718232,2.8136362598470144,-0.1178410777486014,8759,36.94478174,-77.47668023,51183870100,8701
2018,34885643,SHOCKOE,LOAD,39.15572211439661,35.69533051718232,3.112195456102293,0.3484279027286221,8759,37.55280144,-77.42762436,51760010900,109
2018,34885645,SHOCKOE,LOAD,39.20593218403925,35.69533051718232,3.1121806142253665,0.39862655554287,8759,37.55280144,-77.42762436,51760010900,109
2018,34885647,SHOCKOE,LOAD,39.344578148190465,35.69533051718232,3.1121828975910475,0.5373056284964038,8759,37.55280144,-77.42762436,51760010900,109
2018,34885649,SHOCKOE,LOAD,39.29634889827606,35.69533051718232,3.112190889370931,0.4891151957986068,8759,37.55280144,-77.42762436,51760010900,109
2018,34885651,SHORTPMP,LOAD,38.815646763329134,35.69533051718232,3.0474745975567963,0.0728701906610344,8759,37.65962425,-77.62363304,51087200140,2001.40
2018,34885653,SHORTPMP,LOAD,38.94365110172396,35.69533051718232,3.0483788103664775,0.1999737412946684,8759,37.65962425,-77.62363304,51087200140,2001.40
2018,34885655,SHORTPMP,LOAD,38.89998858317158,35.69533051718232,3.0474723141911153,0.1572405525744949,8759,37.65962425,-77.62363304,51087200140,2001.40
2018,34885657,SINAI,LOAD,39.09462609886976,35.69533051718232,3.595889941774174,-0.1965315675305402,8759,36.74305068,-78.92984967,51083930601,9306.01
2018,34885659,SOBOSTON,LOAD,39.040658750999015,35.69533051718232,3.595881949994291,-0.2506393423906838,8759,36.70029515,-78.91301087,51083930800,9308
2018,34885661,SOBOSTON,LOAD,38.97396163945656,35.69533051718232,3.595878524945769,-0.3173136202762872,8759,36.70029515,-78.91301087,51083930800,9308
2018,34885663,SOUTHILL,LOAD,39.16600867678959,35.69533051718232,3.001593789245346,0.4693754994862429,8759,36.72624205,-78.11698543,51117930201,9302.01
2018,34885665,SOUTHILL,LOAD,39.22194542756022,35.69533051718232,3.0015960726110276,0.5251786733645395,8759,36.72624205,-78.11698543,51117930201,9302.01
2018,34885667,STHCREEK,LOAD,39.8701038931385,35.69533051718232,3.21306427674392,0.9619625528028316,8759,37.36208653,-78.85163391,51011040101,401.01
2018,34885681,TREGO,LOAD,38.53374129466836,35.69533051718232,2.7733314305285988,0.0651181641739923,8759,36.6010095,-77.63719698,51081880200,8802
2018,34885687,TWELFTHS,LOAD,38.925214065532565,35.69533051718232,2.986730220344787,0.2432937549948624,8759,37.53357342,-77.43984127,51760030502,305.02
2018,34885689,TWELFTHS,LOAD,38.80864938919968,35.69533051718232,2.986732503710467,0.126700536590935,8759,37.53357342,-77.43984127,51760030502,305.02
2018,34885691,TWELFTHS,LOAD,38.87287019066104,35.69533051718232,2.986731362027627,0.1908939376641167,8759,37.53357342,-77.43984127,51760030502,305.02
2018,34885693,TWELFTHS,LOAD,38.86845872816535,35.69533051718232,2.986729078661946,0.186549834455988,8759,37.53357342,-77.43984127,51760030502,305.02
2018,34885699,TYLER,LOAD,38.59973170453246,35.69533051718232,2.917143509533048,-0.0126692544811051,8759,37.35109094,-77.39523909,51041100509,1005.09
2018,34885709,WALTHALL,LOAD,38.69837766868362,35.69533051718232,2.951989953191003,0.0510925904783651,8759,37.30339617,-77.39916863,51041100506,1005.06
2018,34885727,WELCO,LOAD,39.12614682041331,35.69533051718232,3.5959356090877947,-0.1651409978308027,8759,36.67196559,-78.92009335,51083930302,9303.02
2018,34885729,WHITEOA4,LOAD,38.857580774060985,35.69533051718232,3.118568329718003,0.0437218860600525,8759,37.48611996,-77.24706625,51087201404,2014.04
2018,34885731,WHITEOA4,LOAD,38.85883434181985,35.69533051718232,3.118570613083684,0.0449229364082658,8759,37.48611996,-77.24706625,51087201404,2014.04
2018,34885733,WHITESTN,LOAD,40.24294325836281,35.69533051718232,2.8656102294782495,1.6823507249686036,8759,37.64880297,-76.39830012,51103030301,303.01
2018,34885735,WINTERPK,LOAD,38.88978079689462,35.69533051718232,3.0013129352665797,0.1932937549948624,8759,37.39321816,-77.67210685,51041101015,1010.15
2018,34885737,WINTERPK,LOAD,38.95460440689577,35.69533051718232,3.0012649845872788,0.2581710240895078,8759,37.39321816,-77.67210685,51041101015,1010.15
2018,34885739,WSTPOINT,LOAD,39.318187007649264,35.69533051718232,2.970141568672221,0.6530140426989381,8759,37.53926227,-76.80383347,51101950300,9503
2018,34885741,WSTPOINT,LOAD,39.24098983902273,35.69533051718232,2.9701392853065394,0.5757552231989952,8759,37.53926227,-76.80383347,51101950300,9503
2018,34885759,BLOXOMSC,LOAD,39.42165772348443,35.69533051718232,2.87786733645393,0.8488046580659894,8759,37.0607401,-76.30026435,51650012100,121
2018,34885761,BLOXOMSC,LOAD,39.46714579289874,35.69533051718232,2.877866194771089,0.8941991094873843,8759,37.0607401,-76.30026435,51650012100,121
2018,34885765,BOYKINS,LOAD,38.733644251626885,35.69533051718232,2.7070727251969395,0.3312547094417169,8759,36.6004468,-77.19368156,51175200500,2005
2018,34885767,BURTON,LOAD,39.53908551204478,35.69533051718232,3.1468923393081383,0.6971412261673712,8759,36.90759809,-76.17297305,51810040000,400
2018,34885787,CHRCHLND,LOAD,38.83967119534194,35.69533051718232,2.8005468660806,0.3439753396506452,8759,36.87106757,-76.37693635,51740213001,2130.01
2018,34885791,CHRCHLND,LOAD,38.875735814590726,35.69533051718232,2.8029375499486187,0.3776469916657154,8759,36.87106757,-76.37693635,51740213001,2130.01
2018,34885793,COLONY,LOAD,39.522934124900125,35.69533051718232,2.883613426190202,0.9442208014613545,8759,37.10745168,-76.50412403,51700032126,321.26
2018,34885795,COLONY,LOAD,39.38091677132091,35.69533051718232,2.883612284507361,0.8023016326064621,8759,37.10745168,-76.50412403,51700032126,321.26
2018,34885797,COLONY,LOAD,39.49135061080034,35.69533051718232,2.8836111428245204,0.9126384290444116,8759,37.10745168,-76.50412403,51700032126,321.26
2018,34885811,CRITTNDN,LOAD,38.75347984929786,35.69533051718232,2.8106028085397825,0.2476515583970773,8759,36.88344273,-76.52505959,51800075302,753.02
2018,34885841,FTEUSTIS,LOAD,39.56982760589107,35.69533051718232,2.9089599269322957,0.965869391483046,8759,37.16228569,-76.54619558,51700032123,321.23
2018,34885843,FTEUSTIS,LOAD,39.56982760589107,35.69533051718232,2.9089599269322957,0.965869391483046,8759,37.16228569,-76.54619558,51700032123,321.23
2018,34885845,GOSPORT,LOAD,38.79165315675304,35.69533051718232,2.7955211782166893,0.3009327548806941,8759,36.79482702,-76.31207238,51550021403,214.03
2018,34885847,GOSPORT,LOAD,38.79192944400045,35.69533051718232,2.7955234615823708,0.3012250256878639,8759,36.79482702,-76.31207238,51550021403,214.03
2018,34885853,GREENRUN,LOAD,39.05577349012444,35.69533051718232,2.7995433268637964,0.5611222742322182,8759,36.79792287,-76.10728467,51810045810,458.10
2018,34885855,GREENRUN,LOAD,39.23111314076949,35.69533051718232,2.799544468546636,0.7364687749743121,8759,36.79792287,-76.10728467,51810045810,458.10
2018,34885857,GREENWCH,LOAD,39.21545381892909,35.69533051718232,2.7761296951706806,0.7441968261217033,8759,36.84176562,-76.17497997,51810046009,460.09
2018,34885869,HICKORY,LOAD,39.39608402785705,35.69533051718232,2.789045553145334,0.912017353579176,8759,36.64364792,-76.23691794,51550021009,210.09
2018,34885881,INDUSTPK,LOAD,39.50342961525288,35.69533051718232,3.0521851809567293,0.7561411119990867,8759,36.86389966,-76.24852728,51710003300,33
2018,34885883,INDUSTPK,LOAD,39.494080374471984,35.69533051718232,3.0521840392738886,0.7467781710240893,8759,36.86389966,-76.24852728,51710003300,33
2018,34885885,INDUSTPK,LOAD,39.40450393880579,35.69533051718232,3.052184039273888,0.657212010503482,8759,36.86389966,-76.24852728,51710003300,33
2018,34885887,KINGSFRK,LOAD,38.74829660920198,35.69533051718232,2.7811336910606204,0.271991094873844,8759,36.7843036,-76.60233969,51800075406,754.06
2018,34885891,KINGSFRK,LOAD,38.516062335883085,35.69533051718232,2.794390912204588,0.0264310994405754,8759,36.7843036,-76.60233969,51800075406,754.06
2018,34885893,KINGSMIL,LOAD,39.57546866080605,35.695330517182335,2.9229786505308804,0.9574768809224796,8759,37.23368811,-76.63094246,51095080104,801.04
2018,34885895,KINGSMIL,LOAD,39.361779883548365,35.695330517182335,2.9431921452220537,0.7235951592647558,8759,37.23368811,-76.63094246,51095080104,801.04
2018,34885897,LANDSTWN,LOAD,38.93813563192145,35.695330517182335,2.8021280968147035,0.4408836625185524,8759,36.77130203,-76.0921628,51810045433,454.33
2018,34885899,LANEXA,LOAD,39.14720516040645,35.695330517182335,2.973826920881379,0.4782007078433611,8759,37.42016694,-76.91198959,51127700301,7003.01
2018,34885905,LGHTFOOT,LOAD,39.26569128895993,35.695330517182335,2.9601872359858397,0.610454389770522,8759,37.32823051,-76.75710981,51095080305,803.05
2018,34885907,LGHTFOOT,LOAD,39.289013586025824,35.695330517182335,2.9813471857517952,0.6125196940289985,8759,37.32823051,-76.75710981,51095080305,803.05
2018,34885909,LONDNBRG,LOAD,39.083251512729746,35.695330517182335,2.8302705788331983,0.5578308026030366,8759,36.77195611,-76.01968104,51810045408,454.08
2018,34885917,LYNNHAVN,LOAD,39.10468660806028,35.695330517182335,2.8042482018495254,0.6053442173764128,8759,36.83837513,-76.07525627,51810042600,426
2018,34885919,LYNNHAVN,LOAD,39.01776801004681,35.695330517182335,2.80421509304715,0.5183514099783083,8759,36.83837513,-76.07525627,51810042600,426
2018,34885921,MAGRUDER,LOAD,39.29460326521293,35.695330517182335,2.8799942915857937,0.7195376184495949,8759,37.05799066,-76.40107992,51650010314,103.14
2018,34885923,MAGRUDER,LOAD,39.48281538988469,35.695330517182335,2.8799942915857937,0.9077919853864596,8759,37.05799066,-76.40107992,51650010314,103.14
2018,34885925,MAGRUDER,LOAD,39.38762529969177,35.695330517182335,2.8799954332686344,0.8125756364881834,8759,37.05799066,-76.40107992,51650010314,103.14
2018,34885927,MARTNHND,LOAD,39.46224454846441,35.695330517182335,2.9095387601324316,0.8576287247402669,8759,37.20268562,-76.60514216,51095080102,801.02
2018,34885929,MCLAUGH,LOAD,39.15386802146364,35.695330517182335,2.7969848156182207,0.6617559082087001,8759,36.87418604,-76.29850469,51710002700,27
2018,34885933,MYRTLE,LOAD,38.82184724283592,35.695330517182335,2.7891151957986073,0.3375762073296035,8759,36.77130021,-76.6966516,51800075405,754.05
2018,34885941,NWPORTNW,LOAD,39.13120105034822,35.695330517182335,2.8772337024774495,0.558949651786734,8759,36.98655702,-76.43043748,51700030100,301
2018,34885943,NWPORTNW,LOAD,39.14713437607031,35.695330517182335,2.8562678387943823,0.5958157323895422,8759,36.98655702,-76.43043748,51700030100,301
2018,34885945,NWPORTNW,LOAD,39.21518438177872,35.695330517182335,2.8569128895992684,0.6632811964836167,8759,36.98655702,-76.43043748,51700030100,301
2018,34885947,OAKRIDGE,LOAD,38.77558511245575,35.695330517182335,2.7811690832286775,0.2992716063477567,8759,36.72468115,-76.62220275,51800075701,757.01
2018,34885949,OAKWOOD,LOAD,39.60763899988584,35.695330517182335,3.1268923393081383,0.7856045210640483,8759,36.90978868,-76.2373345,51710005800,58
2018,34885951,OAKWOOD,LOAD,39.57579632378127,35.695330517182335,3.126893480990979,0.7538406210754656,8759,36.90978868,-76.2373345,51710005800,58
2018,34885953,OAKWOOD,LOAD,39.57520949880126,35.695330517182335,3.1268946226738192,0.7531944285877383,8759,36.90978868,-76.2373345,51710005800,58
2018,34885955,OAKWOOD,LOAD,39.71594017581918,35.695330517182335,3.1268900559424573,0.8939776230163264,8759,36.90978868,-76.2373345,51710005800,58
2018,34885957,OAKWOOD,LOAD,39.636896906039496,35.695330517182335,3.1268900559424573,0.8149354949195109,8759,36.90978868,-76.2373345,51710005800,58
2018,34885959,PENDLETN,LOAD,39.25379152871331,35.695330517182335,2.8699828747573917,0.6887361570955595,8759,36.79038605,-75.99842104,51810045408,454.08
2018,34885961,PENDLETN,LOAD,39.25221943144192,35.695330517182335,2.869986299805914,0.6871663431898622,8759,36.79038605,-75.99842104,51810045408,454.08
2018,34885963,PENINSLA,LOAD,39.40161091448795,35.695330517182335,2.882077862769719,0.8245233474140882,8759,37.09145819,-76.38880985,51650010314,103.14
2018,34885965,PENINSLA,LOAD,39.38945427560222,35.695330517182335,2.8820801461354004,0.8123826920881378,8759,37.09145819,-76.38880985,51650010314,103.14
2018,34885967,PENINSLA,LOAD,39.20652814248199,35.695330517182335,2.8821383719602656,0.6293309738554632,8759,37.09145819,-76.38880985,51650010314,103.14
2018,34885977,REEVESAV,LOAD,39.003616851238725,35.695330517182335,2.7967073866879777,0.5117981504737985,8759,36.84204059,-76.27318095,51710004700,47
2018,34885979,REEVESAV,LOAD,39.35828633405638,35.695330517182335,2.9998321726224444,0.663369106062336,8759,36.84204059,-76.27318095,51710004700,47
2018,34885981,REEVESAV,LOAD,39.367690375613634,35.695330517182335,3.0001461354035843,0.6724443429615252,8759,36.84204059,-76.27318095,51710004700,47
2018,34885983,RURITAN,LOAD,38.80756364881835,35.695330517182335,2.7971195341933996,0.3151809567302203,8759,36.81938786,-76.25825674,51550020100,201
2018,34885985,SEAFORD,LOAD,39.3449263614568,35.695330517182335,2.88759333257221,0.7622365566845529,8759,37.17419781,-76.47677782,51199050306,503.06
2018,34885987,SEAFORD,LOAD,39.50683639684894,35.695330517182335,2.8875499486242706,0.9242196597785136,8759,37.17419781,-76.47677782,51199050306,503.06
2018,34885991,SEWELLPT,LOAD,38.82236100011416,35.695330517182335,2.8027194885260824,0.3244833885146706,8759,36.93102593,-76.31858042,51710000902,9.02
2018,34885997,SHELLBNK,LOAD,39.348038588879994,35.695330517182335,2.8778559196255245,0.7751832400959007,8759,37.02997092,-76.3670871,51650010502,105.02
2018,34886007,SMITHFLD,LOAD,38.54861856376297,35.695330517182335,2.817707500856259,0.0355394451421395,8759,36.9597007,-76.66956785,51093280200,2802
2018,34886009,SMITHFLD,LOAD,38.41549491951135,35.695330517182335,2.817712067587621,-0.0976481333485559,8759,36.9597007,-76.66956785,51093280200,2802
2018,34886013,STUMPYLK,LOAD,38.89697111542413,35.695330517182335,2.7994086082886156,0.4024089507934693,8759,36.77946913,-76.15755976,51810046224,462.24
2018,34886015,STUMPYLK,LOAD,38.9872827948396,35.695330517182335,2.799413175019978,0.4927377554515354,8759,36.77946913,-76.15755976,51810046224,462.24
2018,34886037,THALIA,LOAD,39.01803173878298,35.695330517182335,2.799245347642424,0.5237241694257334,8759,36.83951016,-76.13444539,51810045605,456.05
2018,34886039,THALIA,LOAD,39.06007078433611,35.695330517182335,2.799244205959584,0.5657232560794606,8759,36.83951016,-76.13444539,51810045605,456.05
2018,34886041,THOLEST,LOAD,39.49092362141796,35.695330517182335,3.096830688434752,0.6990546866080601,8759,36.90006169,-76.25806708,51710002000,20
2018,34886051,THRASHER,LOAD,38.89185980134717,35.695330517182335,2.795797465464094,0.40099098070556,8759,36.7592624,-76.24016888,51550020805,208.05
2018,34886053,THRASHER,LOAD,38.887353579175695,35.695330517182335,2.7957997488297743,0.3964310994405753,8759,36.7592624,-76.24016888,51550020805,208.05
2018,34886055,TOANO,LOAD,39.362139513643115,35.695330517182335,2.9732024203676186,0.6938109373216119,8759,37.3632413,-76.80487749,51095080402,804.02
2018,34886057,TOANO,LOAD,39.369873273204696,35.695330517182335,2.9732047037332996,0.7015789473684212,8759,37.3632413,-76.80487749,51095080402,804.02
2018,34886071,VABEACH,LOAD,39.18131407694942,35.695330517182335,2.8889085512044756,0.5973661376869507,8759,36.84999299,-76.01704977,51810044805,448.05
2018,34886073,VABEACH,LOAD,39.19058454161431,35.695330517182335,2.8889096928873164,0.6065875099897249,8759,36.84999299,-76.01704977,51810044805,448.05
2018,34886075,VABEACH,LOAD,39.15708985043954,35.695330517182335,2.888909692887316,0.5730460098184722,8759,36.84999299,-76.01704977,51810044805,448.05
2018,34886077,VABEACH,LOAD,39.12488297750883,35.695330517182335,2.888909692887316,0.5408631122274232,8759,36.84999299,-76.01704977,51810044805,448.05
2018,34886079,WALLER,LOAD,39.34681356319214,35.695330517182335,2.9552677246260957,0.6964881835826007,8759,37.29585336,-76.70554961,51199051000,510
2018,34886081,WALLER,LOAD,39.372656695969845,35.695330517182335,2.9767873044868125,0.7008048864025571,8759,37.29585336,-76.70554961,51199051000,510
2018,34886083,WARWICK,LOAD,39.465059938349135,35.695330517182335,2.8811690832286745,0.8888320584541614,8759,37.08343514,-76.46033698,51700032128,321.28
2018,34886085,WARWICK,LOAD,39.43175134147734,35.695330517182335,2.881169083228675,0.8555508619705441,8759,37.08343514,-76.46033698,51700032128,321.28
2018,34886087,WARWICK,LOAD,39.23983217262244,35.695330517182335,2.875598812649842,0.6692259390341364,8759,37.08343514,-76.46033698,51700032128,321.28
2018,34886089,WARWICK,LOAD,39.21694942345016,35.695330517182335,2.875596529284161,0.6462963808653952,8759,37.08343514,-76.46033698,51700032128,321.28
2018,34886115,YORKTOW4,LOAD,39.179420025117025,35.695330517182335,2.8895718689348064,0.5947322753739009,8759,37.21316329,-76.46103491,51199050401,504.01
2018,34886117,YORKTOW4,LOAD,39.179420025117025,35.695330517182335,2.8895718689348064,0.5947322753739009,8759,37.21316329,-76.46103491,51199050401,504.01
2018,34886121,ANNANDAL,LOAD,39.115493777828505,35.695330517182335,2.716490466948282,0.7040461239867565,8759,38.82350648,-77.1690137,51059452101,4521.01
2018,34886123,ANNANDAL,LOAD,39.11207786276971,35.69533051718233,2.716488183582601,0.7006382007078431,8759,38.82350648,-77.1690137,51059452101,4521.01
2018,34886127,ARLINGTN,LOAD,39.46155383034591,35.69533051718233,2.724623815504054,1.0420093617992925,8759,38.84769082,-77.09782624,51013102802,1028.02
2018,34886129,ARLINGTN,LOAD,39.4443326863797,35.69533051718233,2.7246249571868946,1.0247414088366251,8759,38.84769082,-77.09782624,51013102802,1028.02
2018,34886131,ARLINGTN,LOAD,39.43552346158236,35.69533051718233,2.724623815504054,1.0158625413860036,8759,38.84769082,-77.09782624,51013102802,1028.02
2018,34886133,ARLINGTN,LOAD,39.26692430642766,35.69533051718233,2.724623815504054,0.8473798378810369,8759,38.84769082,-77.09782624,51013102802,1028.02
2018,34886135,ARNOLDCR,LOAD,38.765039388058,35.69533051718233,2.7143669368649372,0.3554846443657952,8759,38.27994231,-77.20435371,51099040301,403.01
2018,34886137,ARNOLDCR,LOAD,38.72015869391484,35.69533051718233,2.714374928644821,0.3104863568900561,8759,38.27994231,-77.20435371,51099040301,403.01
2018,34886139,ASHBURN,LOAD,40.4755805457244,35.69533051718233,4.199739696312366,0.5808094531339196,8759,39.05139227,-77.49837049,51107611013,6110.13
2018,34886141,ASHBURN,LOAD,38.645212923849776,35.69533051718233,2.276587509989726,0.6736556684553028,8759,39.05139227,-77.49837049,51107611013,6110.13
2018,34886143,BATERYHT,LOAD,38.54259961182782,35.69533051718233,2.4837812535677597,0.3636385432126954,8759,38.75276319,-77.4577185,51683910301,9103.01
2018,34886145,BEAUMEAD,LOAD,40.337193743578034,35.69533051718233,3.8906918598013474,0.7514761959127755,8759,39.02615843,-77.4564009,51107611018,6110.18
2018,34886147,BEAUMEAD,LOAD,38.89696312364425,35.69533051718233,2.282595045096472,0.9193812079004456,8759,39.02615843,-77.4564009,51107611018,6110.18
2018,34886149,BELVOIR,LOAD,39.0227594474255,35.69533051718233,2.6480796894622673,0.6797259961182782,8759,38.74144607,-77.13447072,51059421900,4219
2018,34886151,BELVOIR,LOAD,39.206210754652346,35.69533051718233,2.66119534193401,0.8500593675077066,8759,38.74144607,-77.13447072,51059421900,4219
2018,34886155,BRADDOCK,LOAD,39.16759904098642,35.69533051718233,2.716449366366024,0.7562244548464435,8759,38.8218653,-77.22356114,51059440800,4408
2018,34886157,BRADDOCK,LOAD,39.21277543098527,35.69533051718233,2.7164527914145453,0.8013426190204362,8759,38.8218653,-77.22356114,51059440800,4408
2018,34886175,CIA,LOAD,39.40860486356892,35.69533051718233,2.9231693115652475,0.7904635232332458,8759,38.95044621,-77.14816745,51059980300,9803
2018,34886177,CIA,LOAD,39.40835483502684,35.69533051718233,2.9231636031510453,0.7902500285420709,8759,38.95044621,-77.14816745,51059980300,9803
2018,34886179,CIA,LOAD,39.486488183582594,35.69533051718233,2.923162461468205,0.8684187692658979,8759,38.95044621,-77.14816745,51059980300,9803
2018,34886181,CIA,LOAD,39.453625984701446,35.69533051718233,2.9231715949309285,0.8355497202877045,8759,38.95044621,-77.14816745,51059980300,9803
2018,34886187,CLARK4,LOAD,39.66455873958214,35.69533051718233,3.076536134261902,0.8930722685238045,8759,38.90718246,-77.27127032,51059461000,4610
2018,34886189,CLARK4,LOAD,39.60381778741865,35.69533051718233,3.076850097043041,0.8320036533850894,8759,38.90718246,-77.27127032,51059461000,4610
2018,34886191,CLARK4,LOAD,39.61175134147735,35.69533051718233,3.0763351980819733,0.8405080488640254,8759,38.90718246,-77.27127032,51059461000,4610
2018,34886197,CRANESCR,LOAD,38.80008105948169,35.69533051718233,2.6362153213837174,0.4686996232446626,8759,38.35364279,-77.45586288,51179010404,104.04
2018,34886199,CRANESCR,LOAD,39.16880694143167,35.69533051718233,2.6362221714807603,0.8375488069414319,8759,38.35364279,-77.45586288,51179010404,104.04
2018,34886209,CTRYCLDP,LOAD,38.72330060509192,35.69533051718233,2.618255508619706,0.409995433268638,8759,38.60890217,-77.31904236,51153901011,9010.11
2018,34886211,CUBRUNDP,LOAD,39.32602694371504,35.69533051718233,3.0983422765155866,0.5326624043840623,8759,38.87509557,-77.47041094,51059490105,4901.05
2018,34886217,DRANESVL,LOAD,39.8816428816075,35.69533051718233,3.33392282223998,0.8527366137686956,8759,38.97939788,-77.36155865,51059480503,4805.03
2018,34886219,DRANESVL,LOAD,39.900472656695946,35.69533051718233,3.3338086539559297,0.8716828405069076,8759,38.97939788,-77.36155865,51059480503,4805.03
2018,34886221,DULLES,LOAD,39.49267724626096,35.69533051718233,3.129552460326522,0.668185865966434,8759,38.94537623,-77.43175955,51059980200,9802
2018,34886223,DULLES,LOAD,39.49263272063018,35.69533051718233,3.1295513186436814,0.6681459070670162,8759,38.94537623,-77.43175955,51059980200,9802
2018,34886225,DULLES,LOAD,39.61696540700994,35.69533051718233,3.1295513186436814,0.7924569014727706,8759,38.94537623,-77.43175955,51059980200,9802
2018,34886227,DULLES,LOAD,39.65797465464096,35.69533051718233,3.1295536020093624,0.8334650074209388,8759,38.94537623,-77.43175955,51059980200,9802
2018,34886229,DUMFRIES,LOAD,38.88925219773949,35.69533051718233,2.625732389542184,0.5684747117250827,8759,38.58730618,-77.3059351,51153900803,9008.03
2018,34886231,DUMFRIES,LOAD,38.67175248316018,35.69533051718233,2.6257380979563862,0.3508699623244662,8759,38.58730618,-77.3059351,51153900803,9008.03
2018,34886237,FLSCHURC,LOAD,39.21410663317732,35.69533051718233,2.7738885717547688,0.7452528827491721,8759,38.88572746,-77.15769712,51013101100,1011
2018,34886239,FLSCHURC,LOAD,39.17968032880464,35.69533051718233,2.716676561251286,0.7680579974882971,8759,38.88572746,-77.15769712,51013101100,1011
2018,34886241,FRANCONA,LOAD,38.92260303687639,35.69533051718233,2.6209350382463747,0.6066103436465351,8759,38.73904943,-77.19379111,51059432800,4328
2018,34886243,FRANCONA,LOAD,38.93394108916542,35.69533051718233,2.6175762073296047,0.6213894280168968,8759,38.73904943,-77.19379111,51059432800,4328
2018,34886245,FRDRKSBG,LOAD,38.76000799177989,35.69533051718233,2.646304372645278,0.4185694714008449,8759,38.30442241,-77.48324483,51630000201,2.01
2018,34886247,FRDRKSBG,LOAD,38.79058568329718,35.69533051718233,2.6463100810594806,0.4491791300376756,8759,38.30442241,-77.48324483,51630000201,2.01
2018,34886249,FRDRKSBG,LOAD,38.75220687293069,35.69533051718233,2.64630893937664,0.410761502454618,8759,38.30442241,-77.48324483,51630000201,2.01
2018,34886251,FRDRKSBG,LOAD,38.92811393994747,35.69533051718233,2.6592225139856134,0.5737390113026597,8759,38.30442241,-77.48324483,51630000201,2.01
2018,34886253,GAINESVL,LOAD,38.46172394108916,35.69533051718233,2.3441328918826363,0.4225733531225025,8759,38.79084529,-77.56517207,51153901421,9014.21
2018,34886255,GAINESVL,LOAD,38.3886950565133,35.69533051718233,2.330769494234502,0.3628142482018493,8759,38.79084529,-77.56517207,51153901421,9014.21
2018,34886257,GALLWSRD,LOAD,39.43696769037563,35.69533051718233,2.6732595045096477,1.0687829660920196,8759,38.85442877,-77.21914412,51059450601,4506.01
2018,34886259,GALLWSRD,LOAD,39.32948395935609,35.69533051718233,2.8050108459869874,0.8295284849868713,8759,38.85442877,-77.21914412,51059450601,4506.01
2018,34886261,GLCARLYN,LOAD,39.2154081516155,35.69533051718233,2.7323153328005487,0.7880819728279482,8759,38.86952651,-77.12929085,51013101300,1013
2018,34886263,GLCARLYN,LOAD,39.35552003653384,35.69533051718233,2.7323141911177085,0.9282783422765162,8759,38.86952651,-77.12929085,51013101300,1013
2018,34886265,GLCARLYN,LOAD,39.459570727251965,35.69533051718233,2.732315332800549,1.0322913574608978,8759,38.86952651,-77.12929085,51013101300,1013
2018,34886267,GLEBE,LOAD,39.25645164973171,35.69533051718233,2.7160703276629756,0.8454001598355976,8759,38.84164768,-77.05461594,51013103403,1034.03
2018,34886269,GLEBE,LOAD,39.29080945313393,35.69533051718233,2.7171537846786173,0.8786642310766067,8759,38.84164768,-77.05461594,51013103403,1034.03
2018,34886275,GUMSPRNG,LOAD,39.15579632378125,35.69533051718233,2.6518324009590133,0.8089804772234276,8759,38.74867082,-77.08931275,51059421500,4215
2018,34886277,GUMSPRNG,LOAD,39.21511473912546,35.69533051718233,2.651831259276173,0.86833314305286,8759,38.74867082,-77.08931275,51059421500,4215
2018,34886281,HAYFIEL4,LOAD,39.01916428816075,35.69533051718233,2.6580956730220353,0.6660931613197855,8759,38.7631148,-77.15040432,51059422302,4223.02
2018,34886283,HAYFIEL4,LOAD,39.04115309966891,35.69533051718233,2.6580968147048756,0.6880648475853403,8759,38.7631148,-77.15040432,51059422302,4223.02
2018,34886285,HERNDNPK,LOAD,40.04781481904327,35.69533051718233,3.472073296038359,0.8807889028427905,8759,38.96607667,-77.37907567,51059480802,4808.02
2018,34886287,HUNTER,LOAD,39.670431556113705,35.69533051718233,3.1165133006050927,0.8589154013015183,8759,38.94811967,-77.32836393,51059481900,4819
2018,34886289,HUNTER,LOAD,39.69921680557139,35.69533051718233,3.1165167256536144,0.8877291928302318,8759,38.94811967,-77.32836393,51059481900,4819
2018,34886295,INDEPHIL,LOAD,38.66202648704187,35.69533051718233,2.4868124215093035,0.4800719260189518,8759,38.63250082,-77.46074687,51153901306,9013.06
2018,34886305,JOHNSNDP,LOAD,38.84015869391482,35.69533051718233,2.6723838337709807,0.472736613768695,8759,38.83203344,-77.46574692,51059491301,4913.01
2018,34886307,KEENMILL,LOAD,39.11617878753284,35.69533051718233,2.6960269437150357,0.7251969402899875,8759,38.77393307,-77.26349495,51059431300,4313
2018,34886309,KEENMILL,LOAD,38.88388857175477,35.69533051718233,2.6241660006850096,0.5647048749857289,8759,38.77393307,-77.26349495,51059431300,4313
2018,34886311,LADYSMCT,LOAD,38.19782851923736,35.69533051718233,2.635525744948054,-0.1330505765498345,8759,38.06684721,-77.51758861,51033030400,304
2018,34886313,LAKRIDGE,LOAD,39.0959299006736,35.69533051718233,2.6688617422080148,0.732036762187464,8759,38.69243138,-77.29486849,51153901223,9012.23
2018,34886315,LAKRIDGE,LOAD,38.95069642653271,35.695330517182335,2.650917913003767,0.6047505422993495,8759,38.69243138,-77.29486849,51153901223,9012.23
2018,34886323,MIDDLEBG,LOAD,38.58261559538761,35.695330517182335,2.264372645279141,0.623209270464665,8759,38.95924315,-77.72156119,51107610900,6109
2018,34886325,MIDDLEBG,LOAD,38.58686265555429,35.695330517182335,2.26437036191346,0.6274597556798721,8759,38.95924315,-77.72156119,51107610900,6109
2018,34886327,MINEROAD,LOAD,38.62949537618449,35.695330517182335,2.6516691403128196,0.2825916200479507,8759,38.2502859,-77.47591398,51177020202,202.02
2018,34886329,MINEROAD,LOAD,38.63612741180499,35.695330517182335,2.6516691403128196,0.2892259390341364,8759,38.2502859,-77.47591398,51177020202,202.02
2018,34886331,MINVILDP,LOAD,38.77765726681129,35.695330517182335,2.522853065418427,0.5597408379952049,8759,38.65266973,-77.3483491,51153901203,9012.03
2018,34886333,MOOREDP,LOAD,38.583461582372415,35.695330517182335,2.5491562963808647,0.3391745633063135,8759,38.76755396,-77.37500478,51059492500,4925
2018,34886335,OAKGROV4,LOAD,39.06953761844961,35.695330517182335,2.7903470715835135,0.5840837995204929,8759,38.18440517,-76.9986338,51193010300,103
2018,34886337,OCCOQUAN,LOAD,38.76471515013132,35.695330517182335,2.593350839136887,0.4763009475967575,8759,38.71315635,-77.26906377,51059492201,4922.01
2018,34886339,OCCOQUAN,LOAD,38.72387144651217,35.695330517182335,2.5931247859344673,0.4356205046238151,8759,38.71315635,-77.26906377,51059492201,4922.01
2018,34886347,PLEASNTV,LOAD,38.01725539445143,35.695330517182335,1.8761707957529403,0.4460760360771777,8759,39.07590817,-77.5288222,51107610506,6105.06
2018,34886349,PLEASNTV,LOAD,38.0743977623016,35.695330517182335,1.913476424249344,0.4658465578262357,8759,39.07590817,-77.5288222,51107610506,6105.06
2018,34886371,POSSUMP4,LOAD,38.57169083228681,35.695330517182335,2.611455645621646,0.2650930471515013,8759,38.54052188,-77.27942618,51153900904,9009.04
2018,34886373,POSSUMP4,LOAD,38.57165429843592,35.695330517182335,2.611453362255965,0.2650348213266354,8759,38.54052188,-77.27942618,51153900904,9009.04
2018,34886375,PRINCWIL,LOAD,38.53665715264299,35.695330517182335,2.4731282109829893,0.3684404612398674,8759,38.74964876,-77.47438746,51683910302,9103.02
2018,34886377,QUANTICO,LOAD,38.6905377326179,35.695330517182335,2.6206884347528248,0.3747619591277545,8759,38.51635438,-77.30371462,51153901102,9011.02
2018,34886379,QUANTICO,LOAD,38.6905377326179,35.695330517182335,2.6206884347528248,0.3747619591277545,8759,38.51635438,-77.30371462,51153901102,9011.02
2018,34886383,REMINGTN,LOAD,38.119946340906495,35.695330517182335,2.3796928873159016,0.0450839136887772,8759,38.53964352,-77.7772197,51061930706,9307.06
2018,34886385,REMINGTN,LOAD,38.118647105834,35.695330517182335,2.379694028998742,0.0438223541500171,8759,38.53964352,-77.7772197,51061930706,9307.06
2018,34886387,REMNTNCT,LOAD,38.02910606233589,35.695330517182335,2.3517935837424364,-0.0179757963237812,8759,38.543852,-77.76959512,51061930706,9307.06
2018,34886389,REMNTNCT,LOAD,38.17947596757619,35.695330517182335,2.351797008790957,0.1325071355177532,8759,38.543852,-77.76959512,51061930706,9307.06
2018,34886391,RESTON,LOAD,39.74427217718919,35.695330517182335,3.1563374814476544,0.8929729421166805,8759,38.95291359,-77.34561861,51059482205,4822.05
2018,34886393,RESTON,LOAD,39.73286790729537,35.695330517182335,3.1563374814476544,0.8815583970772921,8759,38.95291359,-77.34561861,51059482205,4822.05
2018,34886395,RESTON,LOAD,39.73741979678043,35.695330517182335,3.1563374814476544,0.8862118963351986,8759,38.95291359,-77.34561861,51059482205,4822.05
2018,34886397,ROSLYN,LOAD,39.37702934124899,35.69533051718233,2.7238577463180738,0.9582532252540245,8759,38.89607909,-77.07153605,51013101603,1016.03
2018,34886399,ROSLYN,LOAD,39.38009361799292,35.69533051718233,2.7238577463180738,0.9612946683411348,8759,38.89607909,-77.07153605,51013101603,1016.03
2018,34886401,ROSLYN,LOAD,39.37799748829774,35.69533051718233,2.7238577463180738,0.9592716063477568,8759,38.89607909,-77.07153605,51013101603,1016.03
2018,34886403,ROSLYN,LOAD,39.37211896335198,35.69533051718233,2.7238577463180738,0.9533040301404272,8759,38.89607909,-77.07153605,51013101603,1016.03
2018,34886405,SIDEBURN,LOAD,38.99663546066902,35.69533051718233,2.61745290558283,0.6842139513643103,8759,38.7982307,-77.29637919,51059431801,4318.01
2018,34886407,SLABTNDP,LOAD,38.806766754195685,35.69533051718233,2.8117650416714204,0.2998938234958326,8759,38.22456512,-77.47377842,51177020206,202.06
2018,34886409,SMOKTNDP,LOAD,38.77487270236329,35.69533051718233,2.618281767325038,0.4615218632263954,8759,38.64157111,-77.30230777,51153900403,9004.03
2018,34886411,SOWEGODP,LOAD,38.36928188149331,35.69533051718233,2.4459995433268635,0.2280009133462723,8759,38.59129348,-77.57779074,51061930704,9307.04
2018,34886413,STAFFORD,LOAD,38.914851010389306,35.69533051718233,2.627114967462038,0.5927525973284624,8759,38.44610159,-77.3891976,51179010105,101.05
2018,34886415,STAFFORD,LOAD,38.76576093161323,35.69533051718233,2.627113825779199,0.4435757506564673,8759,38.44610159,-77.3891976,51179010105,101.05
2018,34886425,STJOHNS4,LOAD,38.73817102408951,35.69533051718233,2.9662016211896316,0.0766240438406211,8759,38.03114507,-77.42765586,51033030503,305.03
2018,34886429,SULLY,LOAD,39.40149446283823,35.69533051718233,2.9032366708528388,0.8032754880694143,8759,38.91977204,-77.42839291,51059482505,4825.05
2018,34886431,SULLY,LOAD,39.25681698824065,35.69533051718233,2.9032366708528383,0.658552346158237,8759,38.91977204,-77.42839291,51059482505,4825.05
2018,34886433,SWINKMIL,LOAD,39.65312478593449,35.69533051718233,2.971280968147048,0.9868078547779424,8759,38.95016605,-77.19950261,51059480201,4802.01
2018,34886435,TYSONS,LOAD,39.68168055714123,35.69533051718233,3.0444160292270808,0.942313049434868,8759,38.93202821,-77.23689132,51059480302,4803.02
2018,34886437,TYSONS,LOAD,39.61142596186779,35.69533051718233,3.04441488754424,0.872032195456102,8759,38.93202821,-77.23689132,51059480302,4803.02
2018,34886439,TYSONS,LOAD,39.67796095444685,35.69533051718233,3.004429729421167,0.9786242721771888,8759,38.93202821,-77.23689132,51059480302,4803.02
2018,34886441,TYSONS,LOAD,39.63227423221829,35.69533051718233,3.04441488754424,0.8928770407580777,8759,38.93202821,-77.23689132,51059480302,4803.02
2018,34886445,VANDORN,LOAD,38.95729649503368,35.69533051718233,2.6454983445598814,0.6167861628039729,8759,38.79499351,-77.14928538,51059420201,4202.01
2018,34886447,VANDORN,LOAD,39.01995889941774,35.69533051718233,2.6455086197054465,0.6794474255051945,8759,38.79499351,-77.14928538,51059420201,4202.01
2018,34886449,WALNEY,LOAD,39.54735700422423,35.69533051718233,3.103751569813908,0.7486413974197963,8759,38.8936558,-77.41158523,51059482601,4826.01
2018,34886451,WALNEY,LOAD,39.29182897591052,35.69533051718233,2.822496860372191,0.7743167028199561,8759,38.8936558,-77.41158523,51059482601,4826.01
2018,34886453,WAR,LOAD,39.29408722456901,35.69533051718233,2.723103093960498,0.8760463523233243,8759,38.86842435,-77.04946649,51013980100,9801
2018,34886455,WAR,LOAD,39.29456558967917,35.69533051718233,2.723067701792443,0.8765692430642766,8759,38.86842435,-77.04946649,51013980100,9801
2018,34886457,WAR,LOAD,39.285971001255845,35.69533051718233,2.7231875784906956,0.8678627697225709,8759,38.86842435,-77.04946649,51013980100,9801
2018,34886459,WARRENTN,LOAD,38.28060395022264,35.69533051718233,2.35178216691403,0.2336579518209842,8759,38.69742368,-77.76746382,51061930404,9304.04
2018,34886463,WOODBRGE,LOAD,38.89203562050464,35.69533051718233,2.6015104463979895,0.5954732275373901,8759,38.65474502,-77.2825091,51153900403,9004.03
2018,34886465,WOODBRGE,LOAD,38.79412718346843,35.69533051718233,2.626999657495146,0.4721143966206186,8759,38.65474502,-77.2825091,51153900403,9004.03
2018,34886467,WOODPKDP,LOAD,38.778241808425626,35.69533051718233,2.972442059595841,0.1105879666628609,8759,38.09048893,-77.44548371,51033030400,304
2018,34886469,WOODSDP,LOAD,38.65023747003083,35.69533051718233,2.3947619591277536,0.5604909236214178,8759,38.76741934,-77.47866716,51683910201,9102.01
2018,34886663,BARRCKRD,LOAD,38.7511051489896,35.69533051718233,3.321536705103322,-0.2657415230049093,8759,38.07163454,-78.53051158,51003010802,108.02
2018,34886665,BARRCKRD,LOAD,38.75160977280512,35.69533051718233,3.2920995547436913,-0.2358123073410206,8759,38.07163454,-78.53051158,51003010802,108.02
2018,34886687,BUENAVST,LOAD,39.29420025117022,35.69533051718233,3.726782737755447,-0.1278056855805457,8759,37.73222872,-79.35673672,51530930601,9306.01
2018,34886689,BUENAVST,LOAD,39.295067930128994,35.69533051718233,3.726785021121129,-0.1269813905696996,8759,37.73222872,-79.35673672,51530930601,9306.01
2018,34886693,CARTERSV,LOAD,38.40296723370249,35.69533051718233,3.191239867564791,-0.4837390113026601,8759,37.65702131,-78.1277614,51049930101,9301.01
2018,34886697,CHARLTSV,LOAD,38.76805913917115,35.69533051718233,3.284710583399932,-0.2120230619933782,8759,38.04159285,-78.45782221,51540000900,9
2018,34886699,CHARLTSV,LOAD,38.94202420367622,35.69533051718233,3.284737983788104,-0.0379392624728849,8759,38.04159285,-78.45782221,51540000900,9
2018,34886701,CLIFTNFG,LOAD,39.32732732047038,35.69533051718233,3.727161776458497,-0.0950827720059367,8759,37.81240178,-79.8241049,51005080100,801
2018,34886703,CLIFTNFG,LOAD,39.22623358830917,35.69533051718233,3.7271594930928154,-0.1961822125813448,8759,37.81240178,-79.8241049,51005080100,801
2018,34886707,COVINGTN,LOAD,39.13920995547437,35.69533051718233,3.727152642995772,-0.2832606461924876,8759,37.76931997,-79.98599993,51580060200,602
2018,34886709,COVINGTN,LOAD,39.15568215549719,35.69533051718233,3.727136659436005,-0.2667507706359173,8759,37.76931997,-79.98599993,51580060200,602
2018,34886713,CROZET,LOAD,38.83411690832287,35.69533051718233,3.3638463294896663,-0.2250861970544583,8759,38.08471039,-78.69854023,51003011101,111.01
2018,34886715,CULPEPER,LOAD,38.741891768466715,35.69533051718233,2.4652677246260977,0.5816554401187349,8759,38.46946279,-77.9932396,51047930400,9304
2018,34886717,CULPEPER,LOAD,38.80080260303684,35.69533051718233,2.465265441260416,0.6404646649160862,8759,38.46946279,-77.9932396,51047930400,9304
2018,34886725,DAYTON,LOAD,39.57818015755225,35.69533051718233,3.495448110514898,0.3876287247402671,8759,38.40984017,-78.92815215,51165011400,114
2018,34886727,DAYTON,LOAD,39.514300719260206,35.69533051718233,3.495444685466376,0.3237127525973284,8759,38.40984017,-78.92815215,51165011400,114
2018,34886739,DUPWAYNE,LOAD,38.82310537732617,35.69533051718233,3.390014841876923,-0.2622137230277429,8759,38.0611923,-78.88086204,51820003200,32
2018,34886741,DUPWAYNE,LOAD,38.82310537732617,35.69533051718233,3.390014841876923,-0.2622137230277429,8759,38.0611923,-78.88086204,51820003200,32
2018,34886749,EDINBUR4,LOAD,41.37787761159948,35.69533051718233,5.563842904441143,0.1188868592305057,8759,38.83404615,-78.5360772,51171040600,406
2018,34886751,EDINBUR4,LOAD,41.48591505879668,35.69533051718233,5.558978193857744,0.2318677931270693,8759,38.83404615,-78.5360772,51171040600,406
2018,34886755,ELKTONDP,LOAD,39.33281082315333,35.69533051718233,3.514654640940746,0.1229535335083912,8759,38.3530038,-78.6663132,51165010100,101
2018,34886761,FAIRFELD,LOAD,39.37104578148188,35.69533051718233,3.7269277314761937,-0.0511154241351751,8759,37.8705064,-79.30672405,51163930102,9301.02
2018,34886763,FISHERSV,LOAD,39.129596985957264,35.69533051718233,3.389977166343187,0.0444525630779769,8759,38.09569253,-78.95571892,51015070601,706.01
2018,34886765,FISHERSV,LOAD,39.25343075693572,35.69533051718233,3.389979449708868,0.1683171594930928,8759,38.09569253,-78.95571892,51015070601,706.01
2018,34886771,GORDONSV,LOAD,38.35056399132319,35.69533051718233,2.870191802717203,-0.214975453818929,8759,38.12406512,-78.20421808,51109950302,9503.02
2018,34886779,GROTTOES,LOAD,39.09881379152875,35.69533051718233,3.483211553830345,-0.0796677702934125,8759,38.26606908,-78.81281928,51165012000,120
2018,34886791,HOLLYMD,LOAD,38.61590592533394,35.69533051718233,3.0891951135974405,-0.1685477794268751,8759,38.12733997,-78.43377319,51003010303,103.03
2018,34886799,KIDDSTDP,LOAD,38.24725881949991,35.69533051718233,2.9783023176161643,-0.4264756250713555,8759,37.79953752,-78.36834662,51065020300,203
2018,34886801,LAKEOFWD,LOAD,38.29515013129353,35.69533051718233,2.502720630208928,0.0970887087567072,8759,38.313533,-77.78125429,51137110108,1101.08
2018,34886803,LAKEOFWD,LOAD,38.29515013129353,35.69533051718233,2.502720630208928,0.0970887087567072,8759,38.313533,-77.78125429,51137110108,1101.08
2018,34886807,LOUISA,LOAD,38.21751798150475,35.69533051718233,2.763171594930924,-0.2411599497659551,8759,38.1174189,-78.21546139,51109950302,9503.02
2018,34886819,MIDWAYDP,LOAD,38.89179929215664,35.69533051718233,3.3657780568558047,-0.1692818814933213,8759,38.02658212,-78.70715991,51003011201,112.01
2018,34886821,MITCHLDP,LOAD,38.49901701107432,35.69533051718233,2.547113825779198,0.2566697111542412,8759,38.36749298,-77.99374172,51047930501,9305.01
2018,34886825,MTJACKS4,LOAD,40.370558282909,35.69533051718233,4.644780226053199,0.0306085169539902,8759,38.72436542,-78.6617298,51171040700,407
2018,34886827,MTJACKS4,LOAD,40.319521634889824,35.69533051718233,4.644777942687518,-0.0204680899646078,8759,38.72436542,-78.6617298,51171040700,407
2018,34886845,NIRIVER,LOAD,38.199472542527694,35.69533051718233,2.489599269322982,0.0145724397762302,8759,38.24325646,-77.58614837,51177020316,203.16
2018,34886847,NRIVERDP,LOAD,39.04771435095333,35.69533051718233,3.4926840963580315,-0.1402340449823038,8759,38.34759674,-78.89656327,51165011700,117
2018,34886853,PAYTESDP,LOAD,38.35343532366708,35.69533051718233,2.5174049549035273,0.1407329603836054,8759,38.22622493,-77.83495515,51177020405,204.05
2018,34886855,PROFITDP,LOAD,38.47548806941431,35.69533051718233,3.1051067473455864,-0.3250131293526659,8759,38.11857582,-78.41537937,51003010303,103.03
2018,34886857,PROFITDP,LOAD,38.47548806941431,35.69533051718233,3.1051067473455864,-0.3250131293526659,8759,38.11857582,-78.41537937,51003010303,103.03
2018,34886867,SHERWOOD,LOAD,39.2706621760475,35.69533051718233,3.271995661605202,0.303549491951136,8759,38.02126164,-78.52598849,51003011202,112.02
2018,34886869,SHERWOOD,LOAD,39.20208585454959,35.69533051718233,3.271999086653724,0.2350256878639114,8759,38.02126164,-78.52598849,51003011202,112.02
2018,34886877,STAUNTON,LOAD,39.13441488754424,35.69533051718233,3.420763785820297,0.0184176275830575,8759,38.14781859,-79.06615965,51790000500,5
2018,34886883,TIMBERVL,LOAD,40.285859116337505,35.69533051718233,3.8938029455417302,0.6970578833200141,8759,38.62739254,-78.77872878,51165010802,108.02
2018,34886887,TODDSTVN,LOAD,38.22524146592076,35.69533051718233,2.4950599383491254,0.0348704189976025,8759,38.2478853,-77.66591262,51177020113,201.13
2018,34886889,TRICESLK,LOAD,38.21241465920768,35.69533051718233,2.9134592990067327,-0.3964973170453248,8759,37.66297275,-78.23822108,51049930101,9301.01
2018,34886895,VERONA,LOAD,39.27965064505079,35.69533051718233,3.431298093389654,0.153160178102523,8759,38.18989681,-78.98580918,51015070702,707.02
2018,34886897,VERONA,LOAD,39.41060280853978,35.69533051718233,3.4313003767553356,0.284155725539445,8759,38.18989681,-78.98580918,51015070702,707.02
2018,34886899,WAYNESBO,LOAD,38.96108117364996,35.69533051718233,3.3900513757278192,-0.1242139513643109,8759,38.06026197,-78.87994886,51820003200,32
2018,34886907,WEYERSCV,LOAD,39.3428827491723,35.69533051718233,3.4845222057312473,0.1631624614682042,8759,38.28289371,-78.90590835,51015070300,703
2018,34886933,PHILPOTT,GEN,38.44104121475054,35.69533051718233,2.7732218289759083,-0.0274197967804543,8759,36.77607146,-80.02717068,51089011200,112
2018,34887781,CLOVER,GEN,37.26298550062793,35.69533051718233,2.2929147162918135,-0.7254355520036533,8759,36.86621143,-78.70654368,51083930100,9301
2018,34887783,CLOVER,GEN,37.26300376755337,35.69533051718233,2.29295239182555,-0.72547322753739,8759,36.86621143,-78.70654368,51083930100,9301
2018,34887787,DARBYTWN,GEN,38.84237926703963,35.69533051718233,3.112386117136659,0.0347436922023062,8759,37.49903853,-77.36935751,51087201504,2015.04
2018,34887789,DARBYTWN,GEN,38.84237926703963,35.69533051718233,3.112386117136659,0.0347448338851467,8759,37.49903853,-77.36935751,51087201504,2015.04
2018,34887791,DARBYTWN,GEN,38.84237470030828,35.69533051718233,3.112386117136659,0.0347414088366252,8759,37.49903853,-77.36935751,51087201504,2015.04
2018,34887793,DARBYTWN,GEN,38.84237127525976,35.69533051718233,3.112386117136659,0.0347379837881037,8759,37.49903853,-77.36935751,51087201504,2015.04
2018,34887857,SHAMPTON,GEN,38.51164630665599,35.69533051718233,2.7155748373101942,0.1007683525516612,8759,36.65318665,-76.99554592,51175200401,2004.01
2018,34887863,YORKTOW4,GEN,39.18030026258706,35.69533051718233,2.8895536020093573,0.5956604635232332,8759,37.21316329,-76.46103491,51199050401,504.01
2018,34887865,YORKTOW4,GEN,39.175448110514914,35.69533051718233,2.889534193401069,0.5908562621303799,8759,37.21316329,-76.46103491,51199050401,504.01
2018,34887867,YORKTOW4,GEN,39.17765041671426,35.69533051718233,2.892956958556909,0.589642653270921,8759,37.21316329,-76.46103491,51199050401,504.01
2018,34887871,LADYSMCT,GEN,38.19782509418883,35.69533051718233,2.635525744948053,-0.1330505765498345,8759,38.06684721,-77.51758861,51033030400,304
2018,34887873,LADYSMCT,GEN,38.19782395250599,35.69533051718233,2.635525744948053,-0.133051718232675,8759,38.06684721,-77.51758861,51033030400,304
2018,34887875,MARSHRUN,GEN,38.01270921338052,35.69533051718233,2.3509875556570385,-0.033547208585455,8759,38.52789851,-77.7696135,51061930706,9307.06
2018,34887877,MARSHRUN,GEN,38.01265327092133,35.69533051718233,2.3509875556570385,-0.0336020093617993,8759,38.52789851,-77.7696135,51061930706,9307.06
2018,34887879,MARSHRUN,GEN,38.0126384290444,35.69533051718233,2.350986413974198,-0.0336168512387259,8759,38.52789851,-77.7696135,51061930706,9307.06
2018,34887887,POSSUMP4,GEN,38.609700879095776,35.69533051718233,2.618239525059939,0.2963397648133348,8759,38.54052188,-77.27942618,51153900904,9009.04
2018,34887889,POSSUMP4,GEN,38.57420710126728,35.69533051718233,2.611499029569585,0.2675419568443886,8759,38.54052188,-77.27942618,51153900904,9009.04
2018,34887891,POSSUMP4,GEN,38.57315903641969,35.69533051718233,2.6114567873044856,0.2665681013814361,8759,38.54052188,-77.27942618,51153900904,9009.04
2018,34887893,POSSUMP4,GEN,38.57325265441261,35.69533051718233,2.611456787304486,0.2666525859116336,8759,38.54052188,-77.27942618,51153900904,9009.04
2018,34887895,POSSUMP4,GEN,38.57315903641969,35.69533051718233,2.6114567873044856,0.2665681013814361,8759,38.54052188,-77.27942618,51153900904,9009.04
2018,34887897,POSSUMP4,GEN,38.57393309738555,35.69533051718233,2.6115013129352653,0.2672599611827833,8759,38.54052188,-77.27942618,51153900904,9009.04
2018,34887899,POSSUMP4,GEN,38.57388514670626,35.69533051718233,2.611447653841762,0.26729763671652,8759,38.54052188,-77.27942618,51153900904,9009.04
2018,34887901,POSSUMP4,GEN,38.573902271948874,35.69533051718233,2.6114739125470936,0.267288503253796,8759,38.54052188,-77.27942618,51153900904,9009.04
2018,34887903,REMNTNCT,GEN,38.02598926818131,35.69533051718233,2.3517924420595953,-0.0210149560452106,8759,38.543852,-77.76959512,51061930706,9307.06
2018,34887905,REMNTNCT,GEN,38.02597899303575,35.69533051718233,2.3517924420595953,-0.0210240895079346,8759,38.543852,-77.76959512,51061930706,9307.06
2018,34887907,REMNTNCT,GEN,38.025980134718594,35.69533051718233,2.3517924420595953,-0.0210297979221372,8759,38.543852,-77.76959512,51061930706,9307.06
2018,34887909,REMNTNCT,GEN,38.02597899303575,35.69533051718233,2.3517924420595953,-0.0210240895079346,8759,38.543852,-77.76959512,51061930706,9307.06
2018,34887977,CUSHAW,GEN,39.295215207215435,35.69533051718233,3.7266731362027583,-0.1267359287589907,8759,37.59288534,-79.38044883,51009010100,101
2018,34887979,FLUVANNA,GEN,38.45941888343418,35.69533051718233,3.1462746888914226,-0.3822787989496517,8759,37.86735761,-78.37942772,51065020300,203
2018,34887981,FLUVANNA,GEN,38.46056969973741,35.69533051718233,3.1462712638429005,-0.3812067587624157,8759,37.86735761,-78.37942772,51065020300,203
2018,34887983,FLUVANNA,GEN,38.46730334513072,35.69533051718233,3.146273547208581,-0.3743680785477793,8759,37.86735761,-78.37942772,51065020300,203
2018,34887985,FLUVANNA,GEN,38.466995090763774,35.69533051718233,3.146273547208581,-0.3746763329147162,8759,37.86735761,-78.37942772,51065020300,203
2018,34887993,LOWMOOR,GEN,39.09971572097269,35.69533051718233,3.7271229592419193,-0.3227354720858547,8759,37.77652852,-79.89199139,51005080100,801
2018,35010339,CARSON,EHV,38.17881264984586,35.69533051718233,2.7874106633177305,-0.3040187235985844,8759,37.08538825,-77.40587584,51053840602,8406.02
2018,35010341,CHICKAHOMINY,EHV,38.643498116223306,35.69533051718233,3.0151615481219296,-0.0671366594360087,8759,37.4373762,-77.15852329,51036600100,6001
2018,35010343,CLOVER,EHV,37.230964722000216,35.69533051718233,2.2200525174106636,-0.6846158237241695,8759,36.86621143,-78.70654368,51083930100,9301
2018,35010345,ELMONT,EHV,38.318464436579504,35.69533051718233,2.7309259047836467,-0.1078182440917913,8759,37.6977958,-77.48471147,51085320400,3204
2018,35010347,MIDLOTHIAN,EHV,38.28708528370818,35.69533051718233,2.7972154355520007,-0.2054378353693344,8759,37.50258352,-77.70405173,51041100928,1009.28
2018,35010349,NORTH ANNA,EHV,38.06832971800434,35.69533051718233,2.5375396734787055,-0.1646729078661947,8759,38.06129172,-77.79721628,51109950102,9501.02
2018,35010351,FENTRESS,EHV,38.547420938463304,35.69533051718233,2.7970578833200124,0.0549948624272178,8759,36.69045416,-76.19002867,51550021013,210.13
2018,35010353,SEPTA,EHV,38.367524831601784,35.69533051718233,2.8088868592305016,-0.1367633291471629,8759,37.01474397,-76.73866348,51093280101,2801.01
2018,35010355,SURRY,EHV,38.36817444913804,35.69533051718233,2.8141317501997913,-0.1412980933896563,8759,37.16202033,-76.69477726,51181860100,8601
2018,35010357,YADKIN,EHV,38.51785934467405,35.69533051718233,2.799794497088708,0.022732047037333,8759,36.76297904,-76.35471476,51550021401,214.01
2018,35010359,CHANCELLOR,EHV,38.162728621988826,35.69533051718233,2.4709247631008084,-0.0035940175819157,8759,38.26225264,-77.58926238,51177020113,201.13
2018,35010361,CLIFTON,EHV,38.367196026943745,35.69533051718233,2.4087441488754413,0.2633805228907406,8759,38.78120873,-77.39880676,51059492500,4925
2018,35010363,LADYSMITH,EHV,38.165456102294776,35.69533051718233,2.533820070784335,-0.063797237127526,8759,38.04665279,-77.55027637,51033030400,304
2018,35010365,LOUDOUN,EHV,38.19579289873272,35.69533051718233,2.26168854892111,0.2389302431784449,8759,38.89413189,-77.56454703,51107611813,6118.13
2018,35010367,MORRISVILLE,EHV,38.06110058225825,35.69533051718233,2.34342619020436,0.0223347414088365,8759,38.50108792,-77.70878874,51061930703,9307.03
2018,35010369,OX,EHV,38.37612056170796,35.69533051718233,2.4484450279712284,0.2325368192716062,8759,38.72378605,-77.28851676,51059492201,4922.01
2018,35010371,PLEASANT VIEW,EHV,38.20296380865397,35.69533051718233,2.203058568329716,0.3047733759561594,8759,39.07716711,-77.52943229,51107610506,6105.06
2018,35010375,BATH COUNTY,EHV,38.90134261902043,35.69533051718233,3.6638794382920414,-0.4579152871332343,8759,38.20908631,-79.80018441,51017920101,9201.01
2018,35010377,CUNNINGHAM,EHV,38.49182326749627,35.69533051718233,3.146273547208581,-0.3499486242721772,8759,37.86864966,-78.37414532,51065020300,203
2018,35010379,DOOMS,EHV,38.73905925333941,35.69533051718233,3.414072382692088,-0.3704110058225822,8759,38.10703457,-78.84909718,51015070500,705
2018,35010381,FLUVANNA,EHV,38.475031396278105,35.69533051718233,3.146274688891422,-0.3666868363968488,8759,37.86735761,-78.37942772,51065020300,203
2018,35010383,LEXINGTON,EHV,39.08440575408154,35.69533051718233,3.837006507592189,-0.4478593446740497,8759,37.86765103,-79.42041902,51163930200,9302
2018,35010387,VALLEY,EHV,38.68092932983218,35.69533051718233,3.36745633063135,-0.3819808197282795,8759,38.3143416,-78.97081062,51015070300,703
