year,pnode_id,pnode_name,type,avg_total_lmp,avg_energy,avg_congestion,avg_loss,hours,latitude,longitude,census_geoid,census_name
2015,48907,GOSHEN,LOAD,32.05686529680364,33.339051369863014,-2.2235833333333317,0.941397260273972,8760,37.96834452,-79.5092247,51163930200,9302
2015,48908,GOSHEN,LOAD,32.05887328767124,33.339051369863014,-2.2235490867579895,0.9433710045662096,8760,37.96834452,-79.5092247,51163930200,9302
2015,49283,ROCKRIDG,LOAD,40.15535045662101,33.339051369863014,5.483211187214614,1.333087899543379,8760,37.79844248,-79.41556716,51163930100,9301
2015,49284,ROCKRIDG,LOAD,40.14413584474887,33.339051369863014,5.483212328767126,1.3218721461187215,8760,37.79844248,-79.41556716,51163930100,9301
2015,49285,ROCKRIDG,LOAD,36.11323858447489,33.33905136986302,1.5563025114155256,1.2178847031963476,8760,37.79844248,-79.41556716,51163930100,9301
2015,49434,HAMILTON,LOAD,31.699867579908684,33.33905136986302,-1.8807111872146096,0.241527397260274,8760,39.14640845,-77.68039988,51107610201,6102.01
2015,49435,HAMILTON,LOAD,31.699867579908684,33.33905136986302,-1.8807111872146096,0.241527397260274,8760,39.14640845,-77.68039988,51107610201,6102.01
2015,49880,CHINCOTE,LOAD,62.212420091324205,33.33905136986302,25.601115296803652,3.2722534246575345,8760,37.93421224,-75.37815417,51001090100,901
2015,49881,CHINCOTE,LOAD,62.212420091324205,33.33905136986302,25.601115296803655,3.272253424657535,8760,37.93421224,-75.37815417,51001090100,901
2015,50021,TASLEY,LOAD,62.173182648401834,33.33905136986302,25.517465753424652,3.3166655251141557,8760,37.70603558,-75.70276562,51001090500,905
2015,50022,TASLEY,LOAD,62.17435273972604,33.33905136986302,25.517465753424652,3.317835616438357,8760,37.70603558,-75.70276562,51001090500,905
2015,50023,TASLEY,LOAD,62.17435273972604,33.33905136986302,25.517465753424652,3.317835616438357,8760,37.70603558,-75.70276562,51001090500,905
2015,50033,WALLOPS,LOAD,62.1172762557078,33.339051369863014,25.601115296803655,3.177109589041095,8760,37.88098031,-75.52172576,51001090200,902
2015,50036,WATTSVIL,LOAD,62.113529680365296,33.339051369863014,25.601115296803655,3.173363013698628,8760,37.93480234,-75.50210517,51001090200,902
2015,50037,WATTSVIL,LOAD,62.113529680365296,33.339051369863014,25.601115296803655,3.173363013698628,8760,37.93480234,-75.50210517,51001090200,902
2015,205502,LAWRENCE,LOAD,32.267027397260286,33.339051369863014,-1.8383378995433777,0.7663139269406393,8760,36.74967218,-77.84646653,51025930203,9302.03
2015,205503,LAWRENCE,LOAD,32.267027397260286,33.339051369863014,-1.8383378995433777,0.7663139269406393,8760,36.74967218,-77.84646653,51025930203,9302.03
2015,1047929,HANOVER,LOAD,31.963179223744312,33.339051369863014,-1.386227168949772,0.0103550228310501,8760,37.74069535,-77.46271479,51085320602,3206.02
2015,1047930,HANOVER,LOAD,31.765618721461195,33.339051369863014,-1.387977168949772,-0.1854554794520547,8760,37.74069535,-77.46271479,51085320602,3206.02
2015,5021016,SOUTHWES,LOAD,39.31329794520547,33.339051369863014,4.831535388127855,1.1427111872146118,8760,37.50207966,-77.5323324,51041100107,1001.07
2015,5021017,SOUTHWES,LOAD,39.313673515981726,33.339051369863014,4.831826484018266,1.1427956621004565,8760,37.50207966,-77.5323324,51041100107,1001.07
2015,5021018,SOUTHWES,LOAD,39.31303082191779,33.339051369863014,4.831534246575344,1.142445205479452,8760,37.50207966,-77.5323324,51041100107,1001.07
2015,5021019,SOUTHWES,LOAD,39.31302739726026,33.339051369863014,4.831557077625572,1.1424189497716897,8760,37.50207966,-77.5323324,51041100107,1001.07
2015,5021036,GLASGOW,LOAD,31.727131278538792,33.339051369863014,-2.102942922374428,0.4910228310502282,8760,37.62484234,-79.48069516,51163930400,9304
2015,5021037,GLASGOW,LOAD,31.727131278538792,33.339051369863014,-2.102942922374428,0.4910228310502282,8760,37.62484234,-79.48069516,51163930400,9304
2015,5021066,BARTONVI,LOAD,36.36658561643836,33.339051369863014,2.933589041095889,0.093945205479452,8760,39.12957187,-78.20752686,51069050900,509
2015,5021067,BARTONVI,LOAD,36.366328767123285,33.339051369863014,2.933534246575341,0.0937431506849315,8760,39.12957187,-78.20752686,51069050900,509
2015,5021139,CRAIGSVI,LOAD,35.92927853881279,33.339051369863014,2.729037671232878,-0.1388105022831052,8760,38.08285176,-79.38484134,51015070100,701
2015,5021155,DOUBLETO,LOAD,36.04340296803653,33.339051369863014,2.764934931506849,-0.0605833333333333,8760,39.06134905,-78.13704877,51043010200,102
2015,5021158,DUPONT,LOAD,32.985627853881304,33.339051369863014,0.5951392694063932,-0.9485627853881275,8760,37.45327138,-77.43845776,51041100300,1003
2015,5021159,DUPONT,LOAD,32.985627853881304,33.339051369863014,0.5951392694063932,-0.9485627853881275,8760,37.45327138,-77.43845776,51041100300,1003
2015,5021160,DUPONT,LOAD,32.985627853881304,33.339051369863014,0.5951392694063932,-0.9485627853881275,8760,37.45327138,-77.43845776,51041100300,1003
2015,5021161,DUPONT,LOAD,32.985627853881304,33.339051369863014,0.5951392694063932,-0.9485627853881275,8760,37.45327138,-77.43845776,51041100300,1003
2015,5021243,GORE APS,LOAD,36.41065525114154,33.339051369863014,2.8639634703196353,0.2076404109589042,8760,39.27620298,-78.36464218,51069050400,504
2015,5021244,GORE APS,LOAD,36.41065525114154,33.339051369863014,2.8639634703196353,0.2076404109589042,8760,39.27620298,-78.36464218,51069050400,504
2015,5021246,GRAFTON,LOAD,33.047851598173494,33.339051369863014,0.4382191780821912,-0.7294189497716894,8760,37.14913923,-76.4984995,51199050306,503.06
2015,5021247,GRAFTON,LOAD,33.047851598173494,33.339051369863014,0.4382191780821912,-0.7294189497716894,8760,37.14913923,-76.4984995,51199050306,503.06
2015,5021255,GREENWOO,LOAD,36.24472945205479,33.339051369863014,2.7526803652968033,0.1529977168949771,8760,39.15236609,-78.13148503,51069051000,510
2015,5021256,GREENWOO,LOAD,36.24472945205479,33.339051369863014,2.7526803652968033,0.1529977168949771,8760,39.15236609,-78.13148503,51069051000,510
2015,5021322,KLINESMI,LOAD,35.83018607305932,33.339051369863014,2.7173287671232873,-0.2261940639269407,8760,39.05412251,-78.25515661,51069050600,506
2015,5021428,NSHE APS,LOAD,36.543319634703195,33.339051369863014,3.193672374429226,0.0105958904109588,8760,38.52692713,-78.620324,51139030500,305
2015,5021429,NSHE APS,LOAD,36.543319634703195,33.339051369863014,3.193672374429226,0.0105958904109588,8760,38.52692713,-78.620324,51139030500,305
2015,5021440,OLDCHAPE,LOAD,36.312450913242,33.339051369863014,2.8902819634703194,0.0831175799086757,8760,39.15975987,-78.00807123,51043010100,101
2015,5021441,OLDCHAPE,LOAD,36.312450913242,33.339051369863014,2.8902819634703194,0.0831175799086757,8760,39.15975987,-78.00807123,51043010100,101
2015,5021451,PAGE,LOAD,36.573434931506846,33.339051369863014,3.010196347031963,0.2241872146118721,8760,38.6696023,-78.45205357,51139030100,301
2015,5021452,PAGE,LOAD,36.57304223744292,33.339051369863014,3.0096495433789947,0.2243413242009132,8760,38.6696023,-78.45205357,51139030100,301
2015,5021453,PAGE,LOAD,36.573434931506846,33.339051369863014,3.010196347031963,0.2241872146118721,8760,38.6696023,-78.45205357,51139030100,301
2015,5021485,REDBUD,LOAD,36.3373002283105,33.339051369863014,2.7438835616438357,0.254365296803653,8760,39.21197165,-78.13499188,51069051102,511.02
2015,5021486,REDBUD,LOAD,36.33730479452055,33.339051369863014,2.7438835616438357,0.2543698630136986,8760,39.21197165,-78.13499188,51069051102,511.02
2015,5021496,RIVERTON,LOAD,36.070607305936086,33.339051369863014,2.7749086757990873,-0.0433527397260274,8760,38.96540748,-78.17722791,51187020200,202
2015,5021540,SPERRYVI,LOAD,36.65495205479451,33.339051369863014,3.0101963470319633,0.3057043378995432,8760,38.65846951,-78.22062419,51157950200,9502
2015,5021550,STRASBUR,LOAD,36.163110730593615,33.339051369863014,2.8813881278538807,-0.0573287671232876,8760,39.00164336,-78.35871382,51171040100,401
2015,5021551,STRASBUR,LOAD,36.163110730593615,33.339051369863014,2.8813881278538807,-0.0573287671232876,8760,39.00164336,-78.35871382,51171040100,401
2015,10700750,BELLEHAV,LOAD,62.73409817351596,33.339051369863014,25.517466894977165,3.877579908675797,8760,37.54846186,-75.79083453,51001090800,908
2015,21601652,PERDUE,LOAD,62.159796803653,33.339051369863014,25.51745091324201,3.3032945205479427,8760,37.74189181,-75.65576839,51001090500,905
2015,31020629,GREENWOO,LOAD,36.244729452054784,33.339051369863014,2.7526803652968033,0.1529977168949771,8760,39.15236609,-78.13148503,51069051000,510
2015,32410481,ABINGDON,LOAD,30.70287328767123,33.339051369863014,-1.3441860730593596,-1.2919920091324206,8760,36.72004621,-82.00796658,51191010501,105.01
2015,32410483,ABINGDON,LOAD,30.70287328767123,33.339051369863014,-1.3441860730593596,-1.2919920091324206,8760,36.72004621,-82.00796658,51191010501,105.01
2015,32410515,ALUMRIDG,LOAD,33.299175799086754,33.339051369863014,0.2134531963470315,-0.2533287671232878,8760,36.97539425,-80.39842021,51063920101,9201.01
2015,32410623,BENTMOUN,LOAD,33.758584474885836,33.339051369863014,1.0008710045662104,-0.5813378995433793,8760,37.1783679,-80.11946681,51161030600,306
2015,32410625,BENTMOUN,LOAD,33.758584474885836,33.339051369863014,1.0008710045662104,-0.5813378995433793,8760,37.1783679,-80.11946681,51161030600,306
2015,32410675,BLAINE,LOAD,34.3790684931507,33.339051369863014,1.263301369863013,-0.2232842465753424,8760,37.05067776,-79.86572137,51067020400,204
2015,32410677,BLAINE,LOAD,34.3790684931507,33.339051369863014,1.263301369863013,-0.2232842465753424,8760,37.05067776,-79.86572137,51067020400,204
2015,32410697,BONSACK,LOAD,34.037084474885845,33.339051369863014,1.2226267123287662,-0.5245936073059362,8760,37.33308427,-79.87011864,51023040501,405.01
2015,32410733,BROOKVI2,LOAD,36.84944748858449,33.339051369863014,3.9606655251141536,-0.4502694063926943,8760,37.37363957,-79.20443788,51680000900,9
2015,32410741,BRUSHTAV,LOAD,38.40911643835616,33.339051369863014,5.254023972602736,-0.183958904109589,8760,37.32299812,-79.25871096,51031020402,204.02
2015,32410753,BUCKHORN,LOAD,31.9399805936073,33.339051369863014,-0.8604223744292229,-0.5386484018264839,8760,37.13548877,-81.49585152,51185021100,211
2015,32410763,BURLING2,LOAD,33.86794520547946,33.339051369863014,1.1669691780821922,-0.6380753424657531,8760,37.36126087,-79.96992235,51161030100,301
2015,32410801,CANDLERS,LOAD,36.3054691780822,33.339051369863014,3.515526255707761,-0.5491084474885847,8760,37.3265735,-79.15561081,51031020200,202
2015,32410837,CATAWBA,LOAD,34.14439041095888,33.339051369863014,1.1139246575342452,-0.3085856164383564,8760,37.33191545,-80.02633098,51161030100,301
2015,32410839,CATAWBA,LOAD,34.79610273972602,33.339051369863014,1.1083755707762553,0.348675799086758,8760,37.33191545,-80.02633098,51161030100,301
2015,32410841,CAVESPRI,LOAD,34.161287671232856,33.339051369863014,1.0446267123287678,-0.2223904109589042,8760,37.22845744,-80.00854958,51161030801,308.01
2015,32410843,CAVESPRI,LOAD,34.161287671232856,33.339051369863014,1.0446267123287678,-0.2223904109589042,8760,37.22845744,-80.00854958,51161030801,308.01
2015,32410849,CELANESE,LOAD,33.70015410958905,33.339051369863014,0.414127853881279,-0.0530251141552511,8760,37.34679794,-80.76819536,51071930300,9303
2015,32410851,CELANESE,LOAD,33.70015410958905,33.339051369863014,0.414127853881279,-0.0530251141552511,8760,37.34679794,-80.76819536,51071930300,9303
2015,32410853,CELANESE,LOAD,33.70015410958905,33.339051369863014,0.414127853881279,-0.0530251141552511,8760,37.34679794,-80.76819536,51071930300,9303
2015,32410905,CLAYPOOL,LOAD,31.039920091324195,33.339051369863014,-1.2384474885844723,-1.0606837899543378,8760,37.04524508,-81.77546367,51185020600,206
2015,32410907,CLEARBRO,LOAD,34.17935502283104,33.339051369863014,1.15520205479452,-0.3148984018264838,8760,37.2196944,-79.95315672,51770002900,29
2015,32410947,COLUMBIA,LOAD,29.982083333333325,33.339051369863014,-2.0833801369863005,-1.2735878995433791,8760,37.76092745,-78.17341753,51065020200,202
2015,32410979,COPPERRI,LOAD,30.519157534246578,33.339051369863014,-1.3984143835616416,-1.421479452054794,8760,36.79432976,-82.46473789,51169030400,304
2015,32411115,DICKENS,LOAD,30.48555936073057,33.339051369863014,-1.377460045662099,-1.4760319634703196,8760,36.84326457,-82.22726173,51167030600,306
2015,32411165,EDGEMONT,LOAD,33.64538242009132,33.339051369863014,0.4539383561643832,-0.1476073059360728,8760,37.10222454,-80.46710169,51121021500,215
2015,32411187,ELKGARD2,LOAD,30.67905707762557,33.339051369863014,-1.2898618721461172,-1.3701324200913243,8760,36.91476406,-81.996991,51167030401,304.01
2015,32411189,ELKGARD2,LOAD,30.67905707762557,33.339051369863014,-1.2898618721461172,-1.3701324200913243,8760,36.91476406,-81.996991,51167030401,304.01
2015,32411245,FALLINGB,LOAD,33.65624200913241,33.339051369863014,0.5391050228310499,-0.2219143835616439,8760,37.13830302,-80.33119304,51121020900,209
2015,32411253,FIELDALE,LOAD,32.71373630136986,33.339051369863014,-0.1814178082191784,-0.4438972602739721,8760,36.70912544,-79.93445629,51089010100,101
2015,32411259,FIELDALE,LOAD,32.71690410958904,33.339051369863014,-0.1423527397260281,-0.4797945205479451,8760,36.70912544,-79.93445629,51089010100,101
2015,32411261,FIELDALE,LOAD,32.71690410958904,33.339051369863014,-0.1423527397260281,-0.4797945205479451,8760,36.70912544,-79.93445629,51089010100,101
2015,32411263,FIELDALE,LOAD,32.62679337899543,33.339051369863014,-0.2720821917808226,-0.4401757990867577,8760,36.70912544,-79.93445629,51089010100,101
2015,32411283,FLETCHER,LOAD,31.170407534246586,33.339051369863014,-1.2735627853881284,-0.8950810502283112,8760,37.11397828,-82.06905292,51027010700,107
2015,32411289,FLOYD,LOAD,33.220729452054805,33.339051369863014,0.1162853881278532,-0.2346073059360729,8760,36.92592942,-80.30859177,51063920101,9201.01
2015,32411301,FOREST2,LOAD,38.237061643835624,33.339051369863014,5.102700913242008,-0.2046906392694062,8760,37.36345077,-79.29310555,51019030103,301.03
2015,32411325,FREMONT,LOAD,31.177273972602737,33.339051369863014,-1.3621506849315057,-0.7996267123287669,8760,37.1298211,-82.39644841,51051040300,403
2015,32411329,FRIES,LOAD,32.99433904109589,33.339051369863014,-0.6008527397260274,0.256140410958904,8760,36.71525958,-80.98805527,51077060101,601.01
2015,32411331,FRIES,LOAD,32.99433904109589,33.339051369863014,-0.6008527397260274,0.256140410958904,8760,36.71525958,-80.98805527,51077060101,601.01
2015,32411389,GLENLYN,LOAD,33.60586643835616,33.339051369863014,0.3012557077625572,-0.0344406392694064,8760,37.36974301,-80.86129938,51071930300,9303
2015,32411391,GLENLYN,LOAD,33.60586643835616,33.339051369863014,0.3012557077625572,-0.0344406392694064,8760,37.36974301,-80.86129938,51071930300,9303
2015,32411403,GOMINGO,LOAD,37.78825684931507,33.339051369863014,5.077320776255709,-0.6281152968036523,8760,37.42663253,-79.08461772,51009010600,106
2015,32411421,GRASSYCR,LOAD,31.597122146118743,33.339051369863014,-1.1914908675799087,-0.5504383561643837,8760,37.17466483,-81.92254075,51027010600,106
2015,32411425,GRAVESMI,LOAD,37.00693721461187,33.339051369863014,4.0851780821917805,-0.4172922374429222,8760,37.39562631,-79.23619671,51019030103,301.03
2015,32411427,GRAVESMI,LOAD,37.00693721461187,33.339051369863014,4.0851780821917805,-0.4172922374429222,8760,37.39562631,-79.23619671,51019030103,301.03
2015,32411469,HANCOCK,LOAD,34.14791552511415,33.339051369863014,1.0639668949771683,-0.2551027397260273,8760,37.26744642,-80.02305441,51775010501,105.01
2015,32411471,HANCOCK,LOAD,34.14791552511415,33.339051369863014,1.0639668949771683,-0.2551027397260273,8760,37.26744642,-80.02305441,51775010501,105.01
2015,32411473,HANCOCK,LOAD,34.14791552511415,33.339051369863014,1.0639668949771683,-0.2551027397260273,8760,37.26744642,-80.02305441,51775010501,105.01
2015,32411475,HANCOCK,LOAD,34.14791552511415,33.339051369863014,1.0639668949771683,-0.2551027397260273,8760,37.26744642,-80.02305441,51775010501,105.01
2015,32411477,HANCOCK,LOAD,34.14791552511415,33.339051369863014,1.0639668949771683,-0.2551027397260273,8760,37.26744642,-80.02305441,51775010501,105.01
2015,32411603,HUFFMAN,LOAD,31.686526255707772,33.339051369863014,-0.9233710045662096,-0.7291541095890406,8760,36.77730114,-80.71930201,51035080100,801
2015,32411605,HUFFMAN,LOAD,31.686526255707772,33.339051369863014,-0.9233710045662096,-0.7291541095890406,8760,36.77730114,-80.71930201,51035080100,801
2015,32411615,HUNTINCT,LOAD,34.432598173515984,33.339051369863014,1.1534691780821915,-0.0599223744292238,8760,37.30857259,-79.93011714,51770000400,4
2015,32411677,INGLESST,LOAD,33.44571347031966,33.339051369863014,0.3094509132420092,-0.2027888127853881,8760,37.11704384,-80.59313942,51750010200,102
2015,32411691,IVYHILL,LOAD,36.8181906392694,33.339051369863014,3.8464623287671182,-0.3673230593607306,8760,37.42575301,-79.29093033,51019030101,301.01
2015,32411713,JOHNSONM,LOAD,38.584817351598176,33.339051369863014,5.631054794520548,-0.3852888127853877,8760,37.24017236,-79.30200924,51031020403,204.03
2015,32411753,KIMBALLT,LOAD,33.791003424657575,33.339051369863014,0.4785684931506845,-0.0266164383561642,8760,37.35329063,-80.66672838,51071930200,9302
2015,32411755,KIMBALLT,LOAD,33.791003424657575,33.339051369863014,0.4785684931506845,-0.0266164383561642,8760,37.35329063,-80.66672838,51071930200,9302
2015,32411769,KUMIS,LOAD,33.64006963470318,33.339051369863014,0.911318493150685,-0.6103002283105022,8760,37.23690882,-80.17753991,51161030300,303
2015,32411807,LEBANON,LOAD,30.59337671232877,33.339051369863014,-1.3087283105022816,-1.4369463470319623,8760,36.92264493,-82.07051379,51167030200,302
2015,32411847,LONESOME,LOAD,32.558997716895,33.339051369863014,-0.5295456621004568,-0.2505079908675799,8760,37.23666153,-81.31395374,51185020200,202
2015,32412009,MONEL,LOAD,37.64494292237443,33.339051369863014,4.782111872146116,-0.4762203196347032,8760,37.45648548,-79.12426127,51009010503,105.03
2015,32412011,MONETA,LOAD,34.9342614155251,33.339051369863014,2.2041997716894968,-0.6089897260273972,8760,37.19526388,-79.61744947,51019030501,305.01
2015,32412031,MOSELEY,LOAD,36.45047716894977,33.339051369863014,3.2903938356164377,-0.1789680365296804,8760,37.35232939,-79.56578353,51019030401,304.01
2015,32412079,NBLACKSB,LOAD,33.89332648401826,33.339051369863014,0.7494098173515982,-0.1951347031963469,8760,37.27708188,-80.38097126,51121020500,205
2015,32412117,NEWLONDO,LOAD,38.38085844748858,33.339051369863014,5.2531518264840145,-0.2113447488584476,8760,37.32910871,-79.30879958,51019030201,302.01
2015,32412175,OAKLEVEL,LOAD,33.0648378995434,33.339051369863014,0.1324041095890409,-0.4066175799086757,8760,36.82143927,-79.93027797,51067020700,207
2015,32412231,PEAKCREE,LOAD,32.638407534246575,33.339051369863014,-0.2020502283105027,-0.4985936073059363,8760,37.04844348,-80.74781265,51155210201,2102.01
2015,32412233,PEAKCREE,LOAD,32.638407534246575,33.339051369863014,-0.2020502283105027,-0.4985936073059363,8760,37.04844348,-80.74781265,51155210201,2102.01
2015,32412239,PENHOOK,LOAD,35.473364155251176,33.339051369863014,2.7610867579908684,-0.6267739726027397,8760,36.97884841,-79.61653232,51067020102,201.02
2015,32412245,PETERSMO,LOAD,33.65848515981734,33.339051369863014,0.3509760273972609,-0.0315422374429223,8760,37.37210044,-80.79814558,51071930300,9303
2015,32412261,PINNACLE,LOAD,32.48721803652967,33.339051369863014,-0.194746575342466,-0.657086757990868,8760,36.6669097,-80.4479937,51141030200,302
2015,32412263,PINNACLE,LOAD,32.48721803652967,33.339051369863014,-0.194746575342466,-0.657086757990868,8760,36.6669097,-80.4479937,51141030200,302
2015,32412265,PIPERSGA,LOAD,31.77472146118721,33.339051369863014,-0.8992751141552499,-0.6650547945205478,8760,36.75858586,-80.74842048,51035080200,802
2015,32412267,PIPERSGA,LOAD,31.77472146118721,33.339051369863014,-0.8992751141552499,-0.6650547945205478,8760,36.75858586,-80.74842048,51035080200,802
2015,32412275,POAGESMI,LOAD,33.913167808219185,33.339051369863014,0.9772636986301372,-0.4031472602739727,8760,37.19948276,-80.0346502,51161030600,306
2015,32412319,RAVENSWO,LOAD,32.05069748858448,33.339051369863014,-0.972378995433789,-0.3159748858447486,8760,38.79675185,-77.24370308,51059430400,4304
2015,32412345,REUSENS,LOAD,37.50845433789954,33.339051369863014,4.514480593607304,-0.3450776255707766,8760,37.46249542,-79.18712614,51680000100,1
2015,32412347,REUSENS,LOAD,37.546076484018265,33.339051369863014,4.550172374429221,-0.3431472602739728,8760,37.46249542,-79.18712614,51680000100,1
2015,32412357,RIDGEWAY,LOAD,32.68375799086759,33.339051369863014,-0.1628287671232881,-0.4924646118721462,8760,36.58641859,-79.8386542,51089010500,105
2015,32412377,RIVERVIL,LOAD,37.833638127853874,33.339051369863014,4.148211187214611,0.3463755707762556,8760,37.5111295,-78.91198683,51009010200,102
2015,32412379,RIVERVIL,LOAD,37.833638127853874,33.339051369863014,4.148211187214611,0.3463755707762556,8760,37.5111295,-78.91198683,51009010200,102
2015,32412381,RIVERVIL,LOAD,37.833638127853874,33.339051369863014,4.148211187214611,0.3463755707762556,8760,37.5111295,-78.91198683,51009010200,102
2015,32412383,ROANELST,LOAD,34.13815296803653,33.339051369863014,1.0169006849315072,-0.2177990867579909,8760,37.27560807,-79.99904598,51770000900,9
2015,32412385,ROANELST,LOAD,34.13815296803653,33.339051369863014,1.0169006849315072,-0.2177990867579909,8760,37.27560807,-79.99904598,51770000900,9
2015,32412387,ROANELST,LOAD,34.13785844748858,33.339051369863014,1.0168847031963475,-0.2180776255707763,8760,37.27560807,-79.99904598,51770000900,9
2015,32412389,ROANOKE,LOAD,34.257618721461185,33.339051369863014,1.200486301369862,-0.2819189497716897,8760,37.25039131,-79.9208591,51770002800,28
2015,32412407,ROCKCAST,LOAD,35.22106164383562,33.339051369863014,2.4920559360730614,-0.6100456621004565,8760,37.13219084,-79.57128068,51019030501,305.01
2015,32412459,RUSTBURG,LOAD,36.32802739726029,33.339051369863014,3.515529680365295,-0.5265536529680361,8760,37.27718258,-79.10626852,51031020101,201.01
2015,32412473,SALTVILL,LOAD,30.86341095890412,33.339051369863014,-1.2357248858447465,-1.2399155251141558,8760,36.89548797,-81.75334542,51173030200,302
2015,32412475,SALTVILL,LOAD,30.863284246575347,33.339051369863014,-1.2355730593607284,-1.240194063926941,8760,36.89548797,-81.75334542,51173030200,302
2015,32412515,SCHRISTI,LOAD,33.61124429223745,33.339051369863014,0.6234063926940636,-0.3512134703196347,8760,37.1192675,-80.39790868,51121021000,210
2015,32412561,SHANNON,LOAD,30.898470319634686,33.339051369863014,-1.6261392694063908,-0.8144417808219176,8760,37.88256715,-78.04595556,51075400500,4005
2015,32412571,SHAWSVIL,LOAD,33.65954109589041,33.339051369863014,0.6586404109589047,-0.3381506849315067,8760,37.14759537,-80.26555339,51121021400,214
2015,32412597,SKIMMER,LOAD,38.02501141552512,33.339051369863014,4.195771689497716,0.4901883561643836,8760,37.52011721,-79.35164297,51019030300,303
2015,32412609,SLYNCHBU,LOAD,36.7312922374429,33.339051369863014,3.866043378995434,-0.4738025114155251,8760,37.36193425,-79.17982079,51680001600,16
2015,32412611,SLYNCHBU,LOAD,36.7312922374429,33.339051369863014,3.866043378995434,-0.4738025114155251,8760,37.36193425,-79.17982079,51680001600,16
2015,32412615,SLYNCHBU,LOAD,36.863272831050246,33.339051369863014,3.837182648401823,-0.3129611872146119,8760,37.36193425,-79.17982079,51680001600,16
2015,32412617,SLYNCHBU,LOAD,36.81067922374429,33.339051369863014,3.851172374429222,-0.3795445205479452,8760,37.36193425,-79.17982079,51680001600,16
2015,32412619,SLYNCHBU,LOAD,36.81067922374429,33.339051369863014,3.851172374429222,-0.3795445205479452,8760,37.36193425,-79.17982079,51680001600,16
2015,32412685,STARKEY,LOAD,34.01802853881277,33.339051369863014,0.9925148401826488,-0.3135376712328768,8760,37.21172208,-79.9872354,51161030802,308.02
2015,32412799,TANKHILL,LOAD,33.48894406392694,33.339051369863014,0.4834897260273977,-0.3335970319634703,8760,37.00202307,-79.89815497,51067020800,208
2015,32412803,TAZEWELL,LOAD,31.79888698630137,33.339051369863014,-0.931223744292236,-0.6089406392694066,8760,37.14809388,-81.54568417,51185020300,203
2015,32412829,THORNTON,LOAD,33.78161643835615,33.339051369863014,0.6736358447488582,-0.2310707762557077,8760,36.92493006,-79.92403451,51067020700,207
2015,32412863,TRABUE,LOAD,31.05338812785386,33.339051369863014,-1.5896723744292245,-0.6959908675799089,8760,37.50726651,-77.62899297,51041100915,1009.15
2015,32412865,TRABUE,LOAD,31.05338812785386,33.339051369863014,-1.5896723744292245,-0.6959908675799089,8760,37.50726651,-77.62899297,51041100915,1009.15
2015,32412867,TRABUE,LOAD,31.05338812785386,33.339051369863014,-1.5896723744292245,-0.6959908675799089,8760,37.50726651,-77.62899297,51041100915,1009.15
2015,32412877,TURNER,LOAD,32.53125570776255,33.339051369863014,0.9033287671232864,-1.7111244292237435,8760,37.44748273,-77.30143635,51087201601,2016.01
2015,32412881,TURNER,LOAD,33.10995776255707,33.339051369863014,1.3765696347031957,-1.605663242009132,8760,37.44748273,-77.30143635,51087201601,2016.01
2015,32412919,VICKER,LOAD,33.73300114155252,33.339051369863014,0.4539360730593603,-0.059986301369863,8760,37.16524664,-80.44405861,51121021100,211
2015,32412927,VINTON,LOAD,34.22216324200914,33.339051369863014,1.208135844748858,-0.3250239726027399,8760,37.26829925,-79.86295506,51161031201,312.01
2015,32412929,VINTON,LOAD,34.22216324200914,33.339051369863014,1.208135844748858,-0.3250239726027399,8760,37.26829925,-79.86295506,51161031201,312.01
2015,32412937,WAKEFIEL,LOAD,29.968047945205484,33.339051369863014,-1.7847831050228302,-1.586220319634702,8760,36.89790269,-76.89784094,51175200100,2001
2015,32413093,WSALEM,LOAD,33.72855251141551,33.339051369863014,1.0155148401826486,-0.6260136986301367,8760,37.29987475,-80.12589238,51161030300,303
2015,32413103,WURNO,LOAD,32.83932762557078,33.339051369863014,-0.0867648401826493,-0.4129589041095889,8760,37.07469255,-80.71740545,51155210202,2102.02
2015,32413105,WURNO,LOAD,32.83932762557078,33.339051369863014,-0.0867648401826493,-0.4129589041095889,8760,37.07469255,-80.71740545,51155210202,2102.02
2015,32413115,WYTHE,LOAD,32.77796917808221,33.339051369863014,-0.5292408675799086,-0.0318413242009131,8760,36.9484324,-81.06049947,51197050200,502
2015,32413117,WYTHE,LOAD,32.66018949771688,33.339051369863014,-0.5292397260273973,-0.1496221461187215,8760,36.9484324,-81.06049947,51197050200,502
2015,32416457,PHILPOTT,LOAD,32.94700570776254,33.339051369863014,-0.0670251141552515,-0.3250205479452055,8760,36.77607146,-80.02717068,51089011200,112
2015,33884119,RIVERTON,LOAD,36.070607305936086,33.339051369863014,2.7749086757990873,-0.0433527397260274,8760,38.96540748,-78.17722791,51187020200,202
2015,34885183,ACCA,LOAD,36.783633561643846,33.339051369863014,3.2297397260274,0.2148424657534245,8760,37.57993938,-77.47755036,51087200502,2005.02
2015,34885185,ACCA,LOAD,36.82042808219179,33.339051369863014,3.229742009132423,0.251634703196347,8760,37.57993938,-77.47755036,51087200502,2005.02
2015,34885187,ACCA,LOAD,36.84213127853883,33.339051369863014,3.229739726027401,0.2733401826484019,8760,37.57993938,-77.47755036,51087200502,2005.02
2015,34885189,ACCA,LOAD,36.80689155251141,33.339051369863014,3.229745433789957,0.2380947488584474,8760,37.57993938,-77.47755036,51087200502,2005.02
2015,34885191,ACCA,LOAD,36.80143493150684,33.339051369863014,3.229736301369866,0.2326472602739726,8760,37.57993938,-77.47755036,51087200502,2005.02
2015,34885193,ALLIED,LOAD,36.33960159817353,33.339051369863014,3.133420091324201,-0.1328698630136987,8760,37.33627018,-77.28109658,51041100403,1004.03
2015,34885195,ALLIED,LOAD,36.33459817351599,33.339051369863014,3.1334189497716896,-0.1378721461187214,8760,37.33627018,-77.28109658,51041100403,1004.03
2015,34885197,ALLIED,LOAD,36.33930707762559,33.339051369863014,3.133406392694064,-0.1331506849315069,8760,37.33627018,-77.28109658,51041100403,1004.03
2015,34885199,ALPINE,LOAD,36.34756392694066,33.339051369863014,3.135267123287671,-0.1267545662100456,8760,37.34223674,-77.28516339,51041100403,1004.03
2015,34885201,ALPINE,LOAD,36.34403310502284,33.339051369863014,3.135270547945206,-0.1302888127853881,8760,37.34223674,-77.28516339,51041100403,1004.03
2015,34885203,ALPINE,LOAD,36.34726940639271,33.339051369863014,3.1352534246575345,-0.1270353881278538,8760,37.34223674,-77.28516339,51041100403,1004.03
2015,34885209,BANISTE4,LOAD,37.236110730593595,33.339051369863014,4.599543378995429,-0.7024840182648407,8760,36.75052076,-79.40617252,51143010900,109
2015,34885213,BASIN,LOAD,36.53719977168951,33.339051369863014,3.2468824200913247,-0.0487340182648401,8760,37.49209701,-77.43067209,51760060800,608
2015,34885215,BASIN,LOAD,36.513800228310494,33.339051369863014,3.218835616438356,-0.0440867579908675,8760,37.49209701,-77.43067209,51760060800,608
2015,34885217,BASIN,LOAD,36.58514269406393,33.339051369863014,3.218836757990868,0.0272545662100456,8760,37.49209701,-77.43067209,51760060800,608
2015,34885219,BEECHDP,LOAD,35.3131803652968,33.339051369863014,2.95038698630137,-0.9762579908675793,8760,36.62635991,-78.19166045,51117930300,9303
2015,34885223,BELLWOOD,LOAD,36.66193378995435,33.339051369863014,3.280058219178083,0.0428242009132421,8760,37.41737781,-77.43269174,51041100404,1004.04
2015,34885225,BELLWOOD,LOAD,36.71093493150685,33.339051369863014,3.280057077625572,0.0918264840182648,8760,37.41737781,-77.43269174,51041100404,1004.04
2015,34885233,BRODNAX,LOAD,35.704711187214606,33.339051369863014,2.535394977168949,-0.1697351598173516,8760,36.73435143,-78.01111496,51025930300,9303
2015,34885243,CARVER,LOAD,36.76316438356164,33.339051369863014,3.230441780821919,0.1936712328767122,8760,37.55573235,-77.44835885,51760040200,402
2015,34885245,CARVER,LOAD,36.763184931506856,33.339051369863014,3.230389269406394,0.1937442922374428,8760,37.55573235,-77.44835885,51760040200,402
2015,34885247,CARVER,LOAD,36.96068150684932,33.339051369863014,3.230390410958905,0.3912397260273973,8760,37.55573235,-77.44835885,51760040200,402
2015,34885249,CARVER,LOAD,37.0384703196347,33.339051369863014,3.2304452054794535,0.4689737442922373,8760,37.55573235,-77.44835885,51760040200,402
2015,34885255,CENTRLIA,LOAD,36.82954908675798,33.339051369863014,3.276039954337901,0.2144577625570776,8760,37.37949755,-77.45344475,51041100409,1004.09
2015,34885257,CENTRLIA,LOAD,36.74779223744291,33.339051369863014,3.2760422374429243,0.1326986301369863,8760,37.37949755,-77.45344475,51041100409,1004.09
2015,34885261,CHASECTY,LOAD,34.90082876712328,33.339051369863014,2.2930353881278545,-0.7312579908675803,8760,36.8090598,-78.46555155,51117930400,9304
2015,34885265,CHATHAM4,LOAD,37.275641552511416,33.339051369863014,4.087071917808214,-0.1504817351598175,8760,36.84947605,-79.38763529,51143010500,105
2015,34885303,CLIMAXDP,LOAD,37.232458904109585,33.339051369863014,4.087229452054791,-0.1938219178082192,8760,36.84785331,-79.47077898,51143010500,105
2015,34885313,CREWE,LOAD,35.502506849315054,33.339051369863014,2.0041952054794536,0.1592602739726028,8760,37.16504501,-78.13068406,51135000300,3
2015,34885319,DANLTNDP,LOAD,34.17236187214612,33.339051369863014,2.465896118721461,-1.6325856164383556,8760,36.90325194,-77.99377321,51025930100,9301
2015,34885321,DISPUTNT,LOAD,36.506462328767114,33.339051369863014,3.131731735159817,0.0356792237442922,8760,37.1102893,-77.22521267,51149850501,8505.01
2015,34885325,DRYBURG,LOAD,35.37169063926942,33.339051369863014,3.2324965753424655,-1.199857305936072,8760,36.82004704,-78.73600977,51083930100,9301
2015,34885327,DRYBURG,LOAD,35.37169063926942,33.339051369863014,3.2324965753424655,-1.199857305936072,8760,36.82004704,-78.73600977,51083930100,9301
2015,34885329,DUNNSVIL,LOAD,37.18552397260273,33.339051369863014,3.2364121004566218,0.6100605022831047,8760,37.85277896,-76.81263913,51057950800,9508
2015,34885343,EMPORIA,LOAD,36.040493150684945,33.339051369863014,2.607636986301369,0.0938047945205479,8760,36.69586061,-77.5596501,51595890200,8902
2015,34885345,ENON4,LOAD,36.44080022831051,33.339051369863014,3.1272773972602748,-0.0255285388127853,8760,37.33964444,-77.32325939,51041100403,1004.03
2015,34885349,FARMVILL,LOAD,35.003273972602756,33.339051369863014,2.0043904109589055,-0.3401678082191778,8760,37.31142158,-78.3930341,51049930200,9302
2015,34885351,FARMVILL,LOAD,35.00738584474884,33.339051369863014,2.0043926940639283,-0.3360582191780821,8760,37.31142158,-78.3930341,51049930200,9302
2015,34885353,FARMVILL,LOAD,34.78808333333334,33.339051369863014,1.992841324200915,-0.5438093607305936,8760,37.31142158,-78.3930341,51049930200,9302
2015,34885359,FOURRIVR,LOAD,36.2410582191781,33.339051369863014,3.2231803652968036,-0.3211735159817352,8760,37.82178788,-77.44353517,51085320100,3201
2015,34885363,FTPICKET,LOAD,35.8554394977169,33.339051369863014,2.004186073059363,0.5122020547945206,8760,37.12094649,-77.93804953,51135980100,9801
2015,34885365,FTPICKET,LOAD,35.61979109589041,33.339051369863014,2.004192922374431,0.2765468036529678,8760,37.12094649,-77.93804953,51135980100,9801
2015,34885367,GARNERDP,LOAD,37.37758904109592,33.339051369863014,3.2283858447488587,0.8101518264840185,8760,37.89372551,-76.50641924,51133020200,202
2015,34885377,GRETNA,LOAD,37.9336883561644,33.339051369863014,4.086837899543375,0.5077990867579909,8760,36.93689888,-79.36244031,51143010600,106
2015,34885381,GRITDP,LOAD,35.62763926940639,33.339051369863014,2.960292237442923,-0.6717043378995432,8760,37.05422683,-79.25305614,51143010100,101
2015,34885393,HARMONYV,LOAD,37.226962328767144,33.339051369863014,3.2021552511415536,0.6857557077625568,8760,37.58231166,-76.48478139,51119951100,9511
2015,34885395,HARVELL,LOAD,36.66052853881283,33.339051369863014,3.167800228310504,0.1536769406392693,8760,37.25649655,-77.37203088,51149850100,8501
2015,34885397,HARVELL,LOAD,36.48297602739726,33.339051369863014,3.1677990867579933,-0.0238744292237443,8760,37.25649655,-77.37203088,51149850100,8501
2015,34885399,HARWGATE,LOAD,36.68068264840183,33.339051369863014,3.2329052511415517,0.1087260273972602,8760,37.29185054,-77.41912399,51041100507,1005.07
2015,34885401,HARWGATE,LOAD,36.63687442922373,33.339051369863014,3.232900684931507,0.0649223744292237,8760,37.29185054,-77.41912399,51041100507,1005.07
2015,34885403,HARWGATE,LOAD,36.32502739726026,33.339051369863014,3.153941780821919,-0.1679657534246576,8760,37.29185054,-77.41912399,51041100507,1005.07
2015,34885405,HAYES,LOAD,37.488442922374425,33.339051369863014,3.1847340182648423,0.9646575342465746,8760,37.27920313,-76.49480811,51073100400,1004
2015,34885407,HAYES,LOAD,37.31475114155249,33.339051369863014,3.184731735159819,0.7909680365296807,8760,37.27920313,-76.49480811,51073100400,1004
2015,34885421,HULLSTR,LOAD,36.644492009132385,33.339051369863014,3.2584246575342477,0.0470159817351598,8760,37.44443045,-77.57657806,51041100812,1008.12
2015,34885423,HULLSTR,LOAD,36.80784360730592,33.339051369863014,3.248752283105027,0.2200399543378995,8760,37.44443045,-77.57657806,51041100812,1008.12
2015,34885425,HULLSTR,LOAD,36.73405821917805,33.339051369863014,3.258571917808221,0.1364349315068493,8760,37.44443045,-77.57657806,51041100812,1008.12
2015,34885431,IRONBRI4,LOAD,36.516871004566205,33.339051369863014,3.138525114155253,0.0392945205479452,8760,37.40862166,-77.50466853,51041100820,1008.20
2015,34885433,IRONBRI4,LOAD,36.47759589041096,33.339051369863014,3.123796803652968,0.0147477168949771,8760,37.40862166,-77.50466853,51041100820,1008.20
2015,34885435,IRONBRI4,LOAD,36.50012214611871,33.339051369863014,3.123727168949772,0.0373436073059361,8760,37.40862166,-77.50466853,51041100820,1008.20
2015,34885441,JARRATT,LOAD,35.857388127853895,33.339051369863014,2.599376712328767,-0.0810399543378994,8760,36.82027337,-77.48376492,51081880101,8801.01
2015,34885443,JARRATT,LOAD,35.857388127853895,33.339051369863014,2.599376712328767,-0.0810399543378994,8760,36.82027337,-77.48376492,51081880101,8801.01
2015,34885445,JARRATT,LOAD,35.857388127853895,33.339051369863014,2.599376712328767,-0.0810399543378994,8760,36.82027337,-77.48376492,51081880101,8801.01
2015,34885447,JARRATT,LOAD,35.857388127853895,33.339051369863014,2.5993767123287665,-0.0810399543378994,8760,36.82027337,-77.48376492,51081880101,8801.01
2015,34885449,JETERSVL,LOAD,35.42607420091325,33.339051369863014,2.004215753424659,0.0828070776255707,8760,37.28060252,-78.11164197,51007930200,9302
2015,34885453,KDOMINDP,LOAD,36.65368607305936,33.339051369863014,3.2889634703196355,0.0256712328767124,8760,37.84628421,-77.44170624,51085320100,3201
2015,34885455,KENBRIDG,LOAD,35.102336757990855,33.339051369863014,2.293206621004567,-0.5299212328767122,8760,36.9596282,-78.13172368,51111930100,9301
2015,34885459,KEVLAR,LOAD,36.57830136986302,33.339051369863014,3.259656392694066,-0.0204063926940638,8760,37.45005506,-77.43748999,51041100300,1003
2015,34885461,KEVLAR,LOAD,36.581174657534255,33.339051369863014,3.2596552511415537,-0.0175319634703196,8760,37.45005506,-77.43748999,51041100300,1003
2015,34885471,LAKESID4,LOAD,36.65449999999999,33.339051369863014,3.2258299086757996,0.0896187214611871,8760,37.61688513,-77.46011624,51087200700,2007
2015,34885473,LAKESID4,LOAD,36.756695205479446,33.339051369863014,3.2258264840182655,0.1918173515981734,8760,37.61688513,-77.46011624,51087200700,2007
2015,34885475,LAKESID4,LOAD,36.6352328767123,33.339051369863014,3.216269406392696,0.079912100456621,8760,37.61688513,-77.46011624,51087200700,2007
2015,34885477,LAKESID4,LOAD,36.67371232876712,33.339051369863014,3.2162659817351607,0.1183949771689498,8760,37.61688513,-77.46011624,51087200700,2007
2015,34885489,LOCKS,LOAD,36.55765753424656,33.339051369863014,3.1698504566210053,0.048755707762557,8760,37.22197699,-77.44356458,51730810300,8103
2015,34885491,LOCKS,LOAD,36.52470662100456,33.339051369863014,3.1690662100456626,0.0165890410958904,8760,37.22197699,-77.44356458,51730810300,8103
2015,34885493,LOCKS,LOAD,36.52445776255708,33.339051369863014,3.1695068493150687,0.0158995433789954,8760,37.22197699,-77.44356458,51730810300,8103
2015,34885497,MANCHSTR,LOAD,36.560090182648395,33.339051369863014,3.2561621004566224,-0.0351232876712328,8760,37.49546269,-77.43218906,51760060700,607
2015,34885499,MANCHSTR,LOAD,36.558649543378976,33.339051369863014,3.2561655251141564,-0.0365673515981734,8760,37.49546269,-77.43218906,51760060700,607
2015,34885505,MARLBORO,LOAD,36.576001141552496,33.339051369863014,3.2526347031963483,-0.0156849315068493,8760,37.47400671,-77.43489524,51760060800,608
2015,34885507,MARLBORO,LOAD,36.553069634703185,33.339051369863014,3.252635844748859,-0.0386175799086758,8760,37.47400671,-77.43489524,51760060800,608
2015,34885525,MTNROAD,LOAD,36.66368607305934,33.339051369863014,3.218553652968038,0.1060810502283106,8760,37.67043029,-77.52191006,51087200406,2004.06
2015,34885527,MTNROAD,LOAD,36.6639394977169,33.339051369863014,3.214492009132421,0.1103961187214613,8760,37.67043029,-77.52191006,51087200406,2004.06
2015,34885541,NATWELDR,LOAD,36.314625570776265,33.339051369863014,3.1310719178082205,-0.1554977168949771,8760,37.33836845,-77.29775811,51041100403,1004.03
2015,34885545,NDOSWLDP,LOAD,36.66847488584473,33.339051369863014,3.297247716894979,0.032175799086758,8760,37.88319273,-77.46122386,51085320100,3201
2015,34885555,NPOLE,LOAD,36.725151826484,33.339051369863014,3.2744954337899563,0.1116050228310504,8760,37.6362189,-77.79385635,51075400200,4002
2015,34885559,NRTHNECK,LOAD,37.366019406392695,33.339051369863014,3.2438367579908696,0.783131278538813,8760,37.94847795,-76.71203979,51159040100,401
2015,34885561,NRTHNECK,LOAD,37.29134018264842,33.339051369863014,3.2438652968036545,0.7084235159817354,8760,37.94847795,-76.71203979,51159040100,401
2015,34885569,NWEST,LOAD,36.57020091324201,33.339051369863014,3.234471461187216,-0.0033219178082191,8760,37.63046819,-77.54155697,51087200126,2001.26
2015,34885571,NWEST,LOAD,36.66613584474886,33.339051369863014,3.2140559360730605,0.1130285388127855,8760,37.63046819,-77.54155697,51087200126,2001.26
2015,34885573,NWEST,LOAD,36.72920319634703,33.339051369863014,3.2140582191780833,0.176093607305936,8760,37.63046819,-77.54155697,51087200126,2001.26
2015,34885575,OLDCHRCH,LOAD,36.6862705479452,33.339051369863014,3.1980159817351597,0.1492031963470319,8760,37.63455996,-77.25058771,51085321402,3214.02
2015,34885577,OMEGADP,LOAD,35.55410388127854,33.339051369863014,3.4417568493150696,-1.2267043378995437,8760,36.67050094,-78.81133379,51083930400,9304
2015,34885579,OTTERRIV,LOAD,35.589139269406395,33.339051369863014,2.775235159817351,-0.5251472602739731,8760,37.11776583,-79.27597003,51031020700,207
2015,34885581,OTTERRIV,LOAD,35.63428767123288,33.339051369863014,2.7752317351598164,-0.4799954337899541,8760,37.11776583,-79.27597003,51031020700,207
2015,34885591,PEARSON,LOAD,36.61010388127855,33.339051369863014,3.21246689497717,0.0585856164383561,8760,37.67124566,-77.37924539,51085320900,3209
2015,34885593,PERTH,LOAD,36.41031392694063,33.339051369863014,3.6421940639269414,-0.5709315068493149,8760,37.01366302,-79.00402362,51083930201,9302.01
2015,34885595,PERTH,LOAD,36.3527283105023,33.339051369863014,3.642195205479453,-0.6285182648401828,8760,37.01366302,-79.00402362,51083930201,9302.01
2015,34885597,PIPELINE,LOAD,36.478236301369854,33.339051369863014,3.2468618721461193,-0.1076769406392694,8760,37.52167631,-77.4259527,51760060700,607
2015,34885599,PLAZA,LOAD,36.70461986301372,33.339051369863014,3.2736027397260288,0.0919657534246575,8760,37.49803979,-77.47818438,51760070601,706.01
2015,34885601,PLAZA,LOAD,36.68231050228312,33.339051369863014,3.2736004566210064,0.0696586757990867,8760,37.49803979,-77.47818438,51760070601,706.01
2015,34885603,PLAZA,LOAD,36.77479452054795,33.339051369863014,3.2914634703196373,0.1442796803652969,8760,37.49803979,-77.47818438,51760070601,706.01
2015,34885605,PLESNTH4,LOAD,36.011530821917816,33.33905136986302,2.6414429223744293,0.0310365296803652,8760,36.55111147,-77.52904785,51081880200,8802
2015,34885607,POE,LOAD,36.26540639269405,33.33905136986302,3.101981735159817,-0.1756267123287671,8760,37.19995371,-77.35909115,51730811200,8112
2015,34885609,POE,LOAD,36.32243949771688,33.33905136986302,3.1025821917808214,-0.1191940639269406,8760,37.19995371,-77.35909115,51730811200,8112
2015,34885619,REAMSDP,LOAD,36.62358904109588,33.33905136986302,3.3507968036529676,-0.0662591324200913,8760,37.08919504,-77.42517513,51053840600,8406
2015,34885623,REEDYCRK,LOAD,36.23224657534247,33.33905136986302,3.9268527397260287,-1.0336575342465752,8760,36.69771299,-78.87641442,51083930500,9305
2015,34885625,REYMET,LOAD,36.49612214611874,33.33905136986302,3.2823687214611894,-0.1252979452054795,8760,37.38896585,-77.40747616,51041100403,1004.03
2015,34885627,RIVERRD,LOAD,36.67437214611871,33.33905136986302,3.247767123287672,0.0875536529680365,8760,37.5744277,-77.5751679,51087200109,2001.09
2015,34885629,RIVERRD,LOAD,36.67407762557077,33.33905136986302,3.2477534246575352,0.0872728310502283,8760,37.5744277,-77.5751679,51087200109,2001.09
2015,34885631,RIVERRD,LOAD,36.770650684931525,33.33905136986302,3.2353573059360743,0.19624200913242,8760,37.5744277,-77.5751679,51087200109,2001.09
2015,34885633,RIVERRD,LOAD,36.80592694063924,33.33905136986302,3.2353573059360743,0.2315182648401827,8760,37.5744277,-77.5751679,51087200109,2001.09
2015,34885637,SAPONY,LOAD,36.195111872146114,33.33905136986302,2.8219417808219163,0.0341187214611872,8760,36.94478174,-77.47668023,51183870100,8701
2015,34885639,SAPONY,LOAD,36.12037899543378,33.33905136986302,2.747065068493149,0.0342625570776255,8760,36.94478174,-77.47668023,51183870100,8701
2015,34885643,SHOCKOE,LOAD,36.99545433789956,33.33905136986302,3.250299086757991,0.4061038812785388,8760,37.55280144,-77.42762436,51760010900,109
2015,34885645,SHOCKOE,LOAD,37.03863698630136,33.33905136986302,3.250309360730594,0.4492762557077625,8760,37.55280144,-77.42762436,51760010900,109
2015,34885647,SHOCKOE,LOAD,37.13971004566211,33.33905136986302,3.250310502283105,0.5503481735159818,8760,37.55280144,-77.42762436,51760010900,109
2015,34885649,SHOCKOE,LOAD,37.110933789954345,33.33905136986302,3.2503002283105027,0.521582191780822,8760,37.55280144,-77.42762436,51760010900,109
2015,34885651,SHORTPMP,LOAD,36.68027511415526,33.33905136986302,3.248291095890412,0.0929326484018264,8760,37.65962425,-77.62363304,51087200120,2001.20
2015,34885653,SHORTPMP,LOAD,36.78211529680365,33.33905136986302,3.2482933789954354,0.1947705479452055,8760,37.65962425,-77.62363304,51087200120,2001.20
2015,34885655,SHORTPMP,LOAD,36.72284817351597,33.33905136986302,3.2482922374429237,0.1355045662100457,8760,37.65962425,-77.62363304,51087200120,2001.20
2015,34885657,SINAI,LOAD,37.00020319634703,33.33905136986302,4.3932762557077645,-0.7321244292237448,8760,36.74305068,-78.92984967,51083930600,9306
2015,34885659,SOBOSTON,LOAD,36.947369863013705,33.33905136986302,4.391934931506851,-0.7836164383561645,8760,36.70029515,-78.91301087,51083930800,9308
2015,34885661,SOBOSTON,LOAD,36.89726940639269,33.33905136986302,4.3919372146118745,-0.8337191780821915,8760,36.70029515,-78.91301087,51083930800,9308
2015,34885663,SOUTHILL,LOAD,35.71378881278538,33.33905136986302,2.4507716894977167,-0.0760342465753425,8760,36.72624205,-78.11698543,51117930200,9302
2015,34885665,SOUTHILL,LOAD,35.762901826484004,33.33905136986302,2.45076598173516,-0.0269155251141552,8760,36.72624205,-78.11698543,51117930200,9302
2015,34885667,STHCREEK,LOAD,36.084526255707765,33.33905136986302,2.0043744292237458,0.7411004566210047,8760,37.36208653,-78.85163391,51011040100,401
2015,34885681,TREGO,LOAD,35.96671803652967,33.33905136986302,2.630192922374428,-0.0025262557077625,8760,36.6010095,-77.63719698,51081880200,8802
2015,34885687,TWELFTHS,LOAD,36.62383675799085,33.33905136986302,3.2468584474885858,0.0379269406392694,8760,37.53357342,-77.43984127,51760030500,305
2015,34885689,TWELFTHS,LOAD,36.52352511415525,33.33905136986302,3.2468641552511426,-0.0623904109589041,8760,37.53357342,-77.43984127,51760030500,305
2015,34885691,TWELFTHS,LOAD,36.57836757990868,33.33905136986302,3.246868721461188,-0.0075525114155251,8760,37.53357342,-77.43984127,51760030500,305
2015,34885693,TWELFTHS,LOAD,36.569089041095886,33.33905136986302,3.246868721461188,-0.0168310502283104,8760,37.53357342,-77.43984127,51760030500,305
2015,34885699,TYLER,LOAD,36.3121609589041,33.33905136986302,3.169134703196349,-0.1960251141552511,8760,37.35109094,-77.39523909,51041100509,1005.09
2015,34885709,WALTHALL,LOAD,36.515942922374435,33.33905136986302,3.243703196347031,-0.0668116438356164,8760,37.30339617,-77.39916863,51041100506,1005.06
2015,34885727,WELCO,LOAD,37.06099771689497,33.33905136986302,4.391771689497719,-0.6698253424657539,8760,36.67196559,-78.92009335,51083930302,9303.02
2015,34885729,WHITEOA4,LOAD,36.55274315068495,33.33905136986302,3.1763139269406406,0.0373778538812785,8760,37.48611996,-77.24706625,51087201404,2014.04
2015,34885731,WHITEOA4,LOAD,36.549477168949785,33.33905136986302,3.176313926940641,0.0341118721461187,8760,37.48611996,-77.24706625,51087201404,2014.04
2015,34885733,WHITESTN,LOAD,37.66218835616437,33.33905136986302,3.1880422374429243,1.135094748858447,8760,37.64880297,-76.39830012,51103030300,303
2015,34885735,WINTERPK,LOAD,36.77105593607309,33.33905136986302,3.254323059360732,0.1776815068493151,8760,37.39321816,-77.67210685,51041101010,1010.10
2015,34885737,WINTERPK,LOAD,36.79138013698629,33.33905136986302,3.254606164383563,0.197722602739726,8760,37.39321816,-77.67210685,51041101010,1010.10
2015,34885739,WSTPOINT,LOAD,37.30633219178082,33.33905136986302,3.1944337899543394,0.7728470319634708,8760,37.53926227,-76.80383347,51101950300,9503
2015,34885741,WSTPOINT,LOAD,37.22042808219177,33.33905136986302,3.1944337899543394,0.6869429223744291,8760,37.53926227,-76.80383347,51101950300,9503
2015,34885759,BLOXOMSC,LOAD,37.44708561643834,33.33905136986302,3.172400684931507,0.9356335616438348,8760,37.0607401,-76.30026435,51650012100,121
2015,34885761,BLOXOMSC,LOAD,37.47544178082193,33.33905136986302,3.1724006849315076,0.9639897260273964,8760,37.0607401,-76.30026435,51650012100,121
2015,34885765,BOYKINS,LOAD,36.85238470319635,33.33905136986302,2.853311643835615,0.6600216894977169,8760,36.6004468,-77.19368156,51175200500,2005
2015,34885767,BURTON,LOAD,38.652212328767106,33.33905136986302,4.421550228310504,0.8916107305936075,8760,36.90759809,-76.17297305,51810040000,400
2015,34885787,CHRCHLND,LOAD,37.425898401826494,33.33905136986302,3.578336757990869,0.5085102739726026,8760,36.87106757,-76.37693635,51740213001,2130.01
2015,34885791,CHRCHLND,LOAD,37.33238584474886,33.33905136986302,3.4241278538812794,0.5692066210045662,8760,36.87106757,-76.37693635,51740213001,2130.01
2015,34885793,COLONY,LOAD,37.49472374429226,33.33905136986302,3.1802990867579917,0.9753732876712324,8760,37.10745168,-76.50412403,51700032126,321.26
2015,34885795,COLONY,LOAD,37.35811187214612,33.33905136986302,3.18029794520548,0.8387625570776255,8760,37.10745168,-76.50412403,51700032126,321.26
2015,34885797,COLONY,LOAD,37.47210045662099,33.33905136986302,3.1802979452054805,0.9527511415525116,8760,37.10745168,-76.50412403,51700032126,321.26
2015,34885811,CRITTNDN,LOAD,37.15132990867581,33.33905136986302,3.3720182648401837,0.4402602739726026,8760,36.88344273,-76.52505959,51800075302,753.02
2015,34885841,FTEUSTIS,LOAD,37.17124315068493,33.33905136986302,3.177921232876713,0.6542705479452052,8760,37.16228569,-76.54619558,51700032123,321.23
2015,34885843,FTEUSTIS,LOAD,37.17124315068493,33.33905136986302,3.177921232876713,0.6542705479452052,8760,37.16228569,-76.54619558,51700032123,321.23
2015,34885845,GOSPORT,LOAD,37.80136872146121,33.33905136986302,3.926642694063928,0.5356746575342467,8760,36.79482702,-76.31207238,51550021403,214.03
2015,34885847,GOSPORT,LOAD,37.80136872146121,33.33905136986302,3.926642694063928,0.5356746575342467,8760,36.79482702,-76.31207238,51550021403,214.03
2015,34885853,GREENRUN,LOAD,38.65546232876714,33.33905136986302,4.524465753424658,0.791945205479452,8760,36.79792287,-76.10728467,51810045810,458.10
2015,34885855,GREENRUN,LOAD,38.7943070776256,33.33905136986302,4.524468036529681,0.9307876712328764,8760,36.79792287,-76.10728467,51810045810,458.10
2015,34885857,GREENWCH,LOAD,38.750577625570784,33.33905136986302,4.629589041095891,0.7819372146118723,8760,36.84176562,-76.17497997,51810046009,460.09
2015,34885869,HICKORY,LOAD,38.357972602739714,33.33905136986302,3.9498801369863026,1.0690410958904106,8760,36.64364792,-76.23691794,51550021009,210.09
2015,34885881,INDUSTPK,LOAD,38.26056621004563,33.33905136986302,4.113386986301369,0.8081278538812788,8760,36.86389966,-76.24852728,51710003300,33
2015,34885883,INDUSTPK,LOAD,38.261196347031955,33.33905136986302,4.113389269406391,0.8087557077625573,8760,36.86389966,-76.24852728,51710003300,33
2015,34885885,INDUSTPK,LOAD,38.191331050228335,33.33905136986302,4.113389269406391,0.7388904109589042,8760,36.86389966,-76.24852728,51710003300,33
2015,34885887,KINGSFRK,LOAD,36.84411415525114,33.33905136986302,3.045607305936074,0.4594554794520549,8760,36.7843036,-76.60233969,51800075403,754.03
2015,34885891,KINGSFRK,LOAD,36.58779908675799,33.33905136986302,3.108277397260274,0.1404703196347032,8760,36.7843036,-76.60233969,51800075403,754.03
2015,34885893,KINGSMIL,LOAD,37.43156164383561,33.33905136986302,3.173745433789956,0.9187648401826488,8760,37.23368811,-76.63094246,51095080101,801.01
2015,34885895,KINGSMIL,LOAD,37.24891552511416,33.33905136986302,3.181753424657537,0.7281107305936073,8760,37.23368811,-76.63094246,51095080101,801.01
2015,34885897,LANDSTWN,LOAD,38.05517808219181,33.33905136986302,4.07093607305936,0.6451906392694062,8760,36.77130203,-76.0921628,51810045423,454.23
2015,34885899,LANEXA,LOAD,36.87249200913245,33.33905136986302,3.1817956621004564,0.35164497716895,8760,37.42016694,-76.91198959,51127700300,7003
2015,34885905,LGHTFOOT,LOAD,37.13234246575343,33.33905136986302,3.1799463470319655,0.6133447488584477,8760,37.32823051,-76.75710981,51095080301,803.01
2015,34885907,LGHTFOOT,LOAD,37.15685616438357,33.33905136986302,3.1749041095890433,0.6429006849315064,8760,37.32823051,-76.75710981,51095080301,803.01
2015,34885909,LONDNBRG,LOAD,38.405536529680354,33.33905136986302,4.315907534246575,0.7505776255707766,8760,36.77195611,-76.01968104,51810045408,454.08
2015,34885917,LYNNHAVN,LOAD,38.48886529680365,33.33905136986302,4.406472602739727,0.743341324200913,8760,36.83837513,-76.07525627,51810042600,426
2015,34885919,LYNNHAVN,LOAD,38.435305936073064,33.33905136986302,4.409520547945206,0.68673401826484,8760,36.83837513,-76.07525627,51810042600,426
2015,34885921,MAGRUDER,LOAD,37.27741210045662,33.33905136986302,3.173254566210046,0.7651061643835614,8760,37.05799066,-76.40107992,51650010314,103.14
2015,34885923,MAGRUDER,LOAD,37.47167694063927,33.33905136986302,3.173254566210046,0.9593710045662096,8760,37.05799066,-76.40107992,51650010314,103.14
2015,34885925,MAGRUDER,LOAD,37.37161872146117,33.33905136986302,3.173254566210046,0.8593127853881278,8760,37.05799066,-76.40107992,51650010314,103.14
2015,34885927,MARTNHND,LOAD,37.031286529680344,33.33905136986302,3.1785719178082203,0.5136632420091324,8760,37.20268562,-76.60514216,51095080102,801.02
2015,34885929,MCLAUGH,LOAD,38.08622602739727,33.33905136986302,3.963227168949772,0.783947488584475,8760,36.87418604,-76.29850469,51710002700,27
2015,34885933,MYRTLE,LOAD,36.816929223744296,33.33905136986302,3.0446997716894986,0.4331780821917804,8760,36.77130021,-76.6966516,51800075405,754.05
2015,34885941,NWPORTNW,LOAD,38.14852826510721,34.12462841130605,3.2814814814814808,0.7424183723196881,8208,36.98655702,-76.43043748,51700030100,301
2015,34885943,NWPORTNW,LOAD,37.242089041095866,33.33905136986302,3.155687214611872,0.7473504566210043,8760,36.98655702,-76.43043748,51700030100,301
2015,34885945,NWPORTNW,LOAD,37.380190639269415,33.33905136986302,3.155689497716895,0.8854497716894972,8760,36.98655702,-76.43043748,51700030100,301
2015,34885947,OAKRIDGE,LOAD,36.78930821917808,33.33905136986302,3.0456050228310514,0.404651826484018,8760,36.72468115,-76.62220275,51800075701,757.01
2015,34885949,OAKWOOD,LOAD,38.26144406392697,33.339051369863014,4.0364783105022815,0.8859143835616435,8760,36.90978868,-76.2373345,51710005800,58
2015,34885951,OAKWOOD,LOAD,38.1326803652968,33.339051369863014,4.036479452054793,0.7571495433789953,8760,36.90978868,-76.2373345,51710005800,58
2015,34885953,OAKWOOD,LOAD,38.16399771689497,33.339051369863014,4.036481735159816,0.788464611872146,8760,36.90978868,-76.2373345,51710005800,58
2015,34885955,OAKWOOD,LOAD,38.24008105022832,33.339051369863014,4.036480593607304,0.8645490867579904,8760,36.90978868,-76.2373345,51710005800,58
2015,34885957,OAKWOOD,LOAD,38.25480251141557,33.339051369863014,4.036484018264838,0.8792671232876706,8760,36.90978868,-76.2373345,51710005800,58
2015,34885959,PENDLETN,LOAD,38.54275913242009,33.339051369863014,4.324884703196347,0.8788230593607305,8760,36.79038605,-75.99842104,51810045408,454.08
2015,34885961,PENDLETN,LOAD,38.53045890410959,33.339051369863014,4.324865296803654,0.8665422374429224,8760,36.79038605,-75.99842104,51810045408,454.08
2015,34885963,PENINSLA,LOAD,37.38144634703194,33.339051369863014,3.1739897260273975,0.8684052511415521,8760,37.09145819,-76.38880985,51650010314,103.14
2015,34885965,PENINSLA,LOAD,37.314486301369875,33.339051369863014,3.1718070776255707,0.8036278538812787,8760,37.09145819,-76.38880985,51650010314,103.14
2015,34885967,PENINSLA,LOAD,37.17151255707764,33.339051369863014,3.166584474885845,0.6658767123287671,8760,37.09145819,-76.38880985,51650010314,103.14
2015,34885977,REEVESAV,LOAD,37.98633447488588,33.339051369863014,3.9632374429223742,0.6840456621004559,8760,36.84204059,-76.27318095,51710004700,47
2015,34885979,REEVESAV,LOAD,38.01885730593605,33.339051369863014,3.963246575342466,0.7165593607305939,8760,36.84204059,-76.27318095,51710004700,47
2015,34885981,REEVESAV,LOAD,37.98537899543379,33.339051369863014,3.963000000000001,0.6833276255707763,8760,36.84204059,-76.27318095,51710004700,47
2015,34885983,RURITAN,LOAD,38.16944634703197,33.339051369863014,4.340513698630137,0.4898812785388129,8760,36.81938786,-76.25825674,51550020100,201
2015,34885985,SEAFORD,LOAD,37.262634703196355,33.339051369863014,3.1776381278538812,0.7459452054794525,8760,37.17419781,-76.47677782,51199050306,503.06
2015,34885987,SEAFORD,LOAD,37.409594748858446,33.339051369863014,3.1752956621004564,0.8952477168949771,8760,37.17419781,-76.47677782,51199050306,503.06
2015,34885991,SEWELLPT,LOAD,37.31854566210045,33.339051369863014,3.456574200913243,0.5229200913242008,8760,36.93102593,-76.31858042,51710000902,9.02
2015,34885997,SHELLBNK,LOAD,37.33334246575344,33.339051369863014,3.172391552511416,0.8218995433789954,8760,37.02997092,-76.3670871,51650010502,105.02
2015,34886007,SMITHFLD,LOAD,36.97846575342468,33.339051369863014,3.453676940639271,0.1857374429223745,8760,36.9597007,-76.66956785,51093280200,2802
2015,34886009,SMITHFLD,LOAD,36.90258561643837,33.339051369863014,3.4536792237442944,0.1098550228310502,8760,36.9597007,-76.66956785,51093280200,2802
2015,34886013,STUMPYLK,LOAD,38.10320547945203,33.339051369863014,4.228566210045661,0.535587899543379,8760,36.77946913,-76.15755976,51810046224,462.24
2015,34886015,STUMPYLK,LOAD,38.20107420091325,33.339051369863014,4.2285730593607305,0.6334497716894975,8760,36.77946913,-76.15755976,51810046224,462.24
2015,34886037,THALIA,LOAD,38.45394634703197,33.339051369863014,4.44148287671233,0.6734121004566207,8760,36.83951016,-76.13444539,51810045604,456.04
2015,34886039,THALIA,LOAD,38.49784589041094,33.339051369863014,4.441438356164385,0.7173561643835612,8760,36.83951016,-76.13444539,51810045604,456.04
2015,34886041,THOLEST,LOAD,38.20565753424655,33.339051369863014,4.078199771689496,0.7884063926940641,8760,36.90006169,-76.25806708,51710002000,20
2015,34886051,THRASHER,LOAD,38.07791438356165,33.339051369863014,4.183949771689497,0.5549132420091331,8760,36.7592624,-76.24016888,51550020805,208.05
2015,34886053,THRASHER,LOAD,38.1217910958904,33.339051369863014,4.227617579908675,0.5551221461187217,8760,36.7592624,-76.24016888,51550020805,208.05
2015,34886055,TOANO,LOAD,37.23227625570776,33.339051369863014,3.1804463470319653,0.7127785388127854,8760,37.3632413,-76.80487749,51095080402,804.02
2015,34886057,TOANO,LOAD,37.233557077625576,33.339051369863014,3.1804463470319653,0.7140593607305937,8760,37.3632413,-76.80487749,51095080402,804.02
2015,34886071,VABEACH,LOAD,38.445640410958895,33.339051369863014,4.359939497716897,0.7466495433789957,8760,36.84999299,-76.01704977,51810044805,448.05
2015,34886073,VABEACH,LOAD,38.46257990867581,33.339051369863014,4.359940639269407,0.7635878995433789,8760,36.84999299,-76.01704977,51810044805,448.05
2015,34886075,VABEACH,LOAD,38.43667009132421,33.339051369863014,4.359940639269407,0.7376780821917805,8760,36.84999299,-76.01704977,51810044805,448.05
2015,34886077,VABEACH,LOAD,38.41604680365297,33.339051369863014,4.3599429223744295,0.717052511415525,8760,36.84999299,-76.01704977,51810044805,448.05
2015,34886079,WALLER,LOAD,37.23795319634702,33.339051369863014,3.1786164383561673,0.7202853881278541,8760,37.29585336,-76.70554961,51199051000,510
2015,34886081,WALLER,LOAD,37.265730593607294,33.339051369863014,3.1766575342465773,0.750021689497717,8760,37.29585336,-76.70554961,51199051000,510
2015,34886083,WARWICK,LOAD,37.45154452054795,33.339051369863014,3.179623287671234,0.9328698630136988,8760,37.08343514,-76.46033698,51700032128,321.28
2015,34886085,WARWICK,LOAD,37.425073059360734,33.339051369863014,3.179624429223745,0.9063972602739732,8760,37.08343514,-76.46033698,51700032128,321.28
2015,34886087,WARWICK,LOAD,37.243156392694054,33.339051369863014,3.185727168949772,0.7183778538812783,8760,37.08343514,-76.46033698,51700032128,321.28
2015,34886089,WARWICK,LOAD,37.19589155251142,33.339051369863014,3.185727168949772,0.6711130136986299,8760,37.08343514,-76.46033698,51700032128,321.28
2015,34886115,YORKTOW4,LOAD,37.09284018264842,33.339051369863014,3.175755707762556,0.5780331050228309,8760,37.21316329,-76.46103491,51199050401,504.01
2015,34886117,YORKTOW4,LOAD,37.092839041095914,33.339051369863014,3.175755707762556,0.5780319634703195,8760,37.21316329,-76.46103491,51199050401,504.01
2015,34886121,ANNANDAL,LOAD,37.79114497716892,33.339051369863014,3.6691381278538806,0.7829554794520545,8760,38.82350648,-77.1690137,51059452101,4521.01
2015,34886123,ANNANDAL,LOAD,37.7902328767123,33.339051369863014,3.669136986301369,0.7820445205479449,8760,38.82350648,-77.1690137,51059452101,4521.01
2015,34886127,ARLINGTN,LOAD,38.12117465753425,33.339051369863014,3.6510331050228295,1.131090182648402,8760,38.84769082,-77.09782624,51013102802,1028.02
2015,34886129,ARLINGTN,LOAD,38.06623287671233,33.339051369863014,3.6510319634703174,1.0761495433789958,8760,38.84769082,-77.09782624,51013102802,1028.02
2015,34886131,ARLINGTN,LOAD,38.15184360730593,33.339051369863014,3.651034246575341,1.1617579908675797,8760,38.84769082,-77.09782624,51013102802,1028.02
2015,34886133,ARLINGTN,LOAD,37.93319634703197,33.339051369863014,3.6510331050228295,0.943111872146118,8760,38.84769082,-77.09782624,51013102802,1028.02
2015,34886135,ARNOLDCR,LOAD,37.06102397260277,33.339051369863014,3.3404577625570764,0.3815148401826483,8760,38.27994231,-77.20435371,51099040300,403
2015,34886137,ARNOLDCR,LOAD,37.03263242009132,33.339051369863014,3.3404577625570764,0.3531232876712325,8760,38.27994231,-77.20435371,51099040300,403
2015,34886139,ASHBURN,LOAD,38.10493493150684,33.339051369863014,4.03186187214612,0.7340216894977172,8760,39.05139227,-77.49837049,51107611013,6110.13
2015,34886141,ASHBURN,LOAD,38.016900684931485,33.339051369863014,3.8860022831050234,0.7918470319634696,8760,39.05139227,-77.49837049,51107611013,6110.13
2015,34886143,BATERYHT,LOAD,37.338211187214625,33.339051369863014,3.5870388127853867,0.4121210045662098,8760,38.75276319,-77.4577185,51683910301,9103.01
2015,34886145,BEAUMEAD,LOAD,37.9848584474886,33.339051369863014,3.8990091324200913,0.7467979452054795,8760,39.02615843,-77.4564009,51107611018,6110.18
2015,34886147,BEAUMEAD,LOAD,38.04360159817354,33.339051369863014,3.8990091324200913,0.805541095890411,8760,39.02615843,-77.4564009,51107611018,6110.18
2015,34886149,BELVOIR,LOAD,37.72944292237443,33.339051369863014,3.630810502283103,0.7595810502283108,8760,38.74144607,-77.13447072,51059421900,4219
2015,34886151,BELVOIR,LOAD,37.824269406392695,33.339051369863014,3.6360159817351585,0.8492020547945204,8760,38.74144607,-77.13447072,51059421900,4219
2015,34886155,BRADDOCK,LOAD,37.844905251141576,33.339051369863014,3.669140410958904,0.8367134703196346,8760,38.8218653,-77.22356114,51059440800,4408
2015,34886157,BRADDOCK,LOAD,37.867181506849306,33.339051369863014,3.6691381278538806,0.8589920091324199,8760,38.8218653,-77.22356114,51059440800,4408
2015,34886175,CIA,LOAD,37.91302511415528,33.339051369863014,3.694453196347032,0.8795205479452047,8760,38.95044621,-77.14816745,51059980300,9803
2015,34886177,CIA,LOAD,37.90962328767126,33.339051369863014,3.694453196347032,0.8761187214611862,8760,38.95044621,-77.14816745,51059980300,9803
2015,34886179,CIA,LOAD,37.97644520547945,33.339051369863014,3.6944543378995434,0.9429394977168948,8760,38.95044621,-77.14816745,51059980300,9803
2015,34886181,CIA,LOAD,37.94824657534245,33.339051369863014,3.694453196347032,0.9147420091324192,8760,38.95044621,-77.14816745,51059980300,9803
2015,34886187,CLARK4,LOAD,38.0697488584475,33.339051369863014,3.7265559360730585,1.0041415525114157,8760,38.90718246,-77.27127032,51059461000,4610
2015,34886189,CLARK4,LOAD,37.98047831050229,33.339051369863014,3.725864155251142,0.9155627853881276,8760,38.90718246,-77.27127032,51059461000,4610
2015,34886191,CLARK4,LOAD,37.99780593607305,33.339051369863014,3.727409817351598,0.9313447488584474,8760,38.90718246,-77.27127032,51059461000,4610
2015,34886197,CRANESCR,LOAD,37.38717351598172,33.339051369863014,3.5366986301369874,0.5114235159817351,8760,38.35364279,-77.45586288,51179010404,104.04
2015,34886199,CRANESCR,LOAD,37.75037100456621,33.339051369863014,3.5366974885844757,0.8746221461187209,8760,38.35364279,-77.45586288,51179010404,104.04
2015,34886209,CTRYCLDP,LOAD,37.44256278538812,33.339051369863014,3.5951632420091313,0.5083481735159818,8760,38.60890217,-77.31904236,51153901011,9010.11
2015,34886211,CUBRUNDP,LOAD,37.60417237442922,33.339051369863014,3.670190639269405,0.5949303652968037,8760,38.87509557,-77.47041094,51059490103,4901.03
2015,34886217,DRANESVL,LOAD,38.033610730593615,33.339051369863014,3.762626712328766,0.9319326484018264,8760,38.97939788,-77.36155865,51059480503,4805.03
2015,34886219,DRANESVL,LOAD,38.046513698630136,33.339051369863014,3.762602739726026,0.9448595890410952,8760,38.97939788,-77.36155865,51059480503,4805.03
2015,34886221,DULLES,LOAD,37.791716894977185,33.339051369863014,3.700900684931504,0.7517648401826489,8760,38.94537623,-77.43175955,51059980200,9802
2015,34886223,DULLES,LOAD,37.80267579908679,33.339051369863014,3.7012180365296783,0.7624063926940642,8760,38.94537623,-77.43175955,51059980200,9802
2015,34886225,DULLES,LOAD,37.95790182648403,33.339051369863014,3.701220319634701,0.9176301369863008,8760,38.94537623,-77.43175955,51059980200,9802
2015,34886227,DULLES,LOAD,37.92968607305937,33.339051369863014,3.700901826484015,0.8897328767123284,8760,38.94537623,-77.43175955,51059980200,9802
2015,34886229,DUMFRIES,LOAD,37.665039954337914,33.339051369863014,3.658841324200913,0.6671472602739725,8760,38.58730618,-77.3059351,51153900802,9008.02
2015,34886231,DUMFRIES,LOAD,37.49998744292238,33.339051369863014,3.658845890410959,0.5020901826484019,8760,38.58730618,-77.3059351,51153900802,9008.02
2015,34886237,FLSCHURC,LOAD,37.86481849315069,33.339051369863014,3.664412100456621,0.86135502283105,8760,38.88572746,-77.15769712,51013101100,1011
2015,34886239,FLSCHURC,LOAD,37.887084474885846,33.339051369863014,3.6489520547945182,0.8990810502283103,8760,38.88572746,-77.15769712,51013101100,1011
2015,34886241,FRANCONA,LOAD,37.67503082191782,33.339051369863014,3.6253949771689498,0.7105844748858448,8760,38.73904943,-77.19379111,51059432800,4328
2015,34886243,FRANCONA,LOAD,37.6335901826484,33.339051369863014,3.625504566210045,0.6690342465753426,8760,38.73904943,-77.19379111,51059432800,4328
2015,34886245,FRDRKSBG,LOAD,37.161698630136954,33.339051369863014,3.4000547945205466,0.4225924657534247,8760,38.30442241,-77.48324483,51630000200,2
2015,34886247,FRDRKSBG,LOAD,37.20070433789956,33.339051369863014,3.400286529680364,0.4613664383561642,8760,38.30442241,-77.48324483,51630000200,2
2015,34886249,FRDRKSBG,LOAD,37.31056621004565,33.339051369863014,3.386683789954337,0.5848310502283103,8760,38.30442241,-77.48324483,51630000200,2
2015,34886251,FRDRKSBG,LOAD,37.40290068493152,33.339051369863014,3.382441780821919,0.6814075342465754,8760,38.30442241,-77.48324483,51630000200,2
2015,34886253,GAINESVL,LOAD,37.39280251141552,33.339051369863014,3.588882420091323,0.4648687214611871,8760,38.79084529,-77.56517207,51153901410,9014.10
2015,34886255,GAINESVL,LOAD,37.42247602739726,33.339051369863014,3.6119326484018255,0.4714920091324198,8760,38.79084529,-77.56517207,51153901410,9014.10
2015,34886257,GALLWSRD,LOAD,38.12461415525115,33.339051369863014,3.637489726027397,1.1480730593607305,8760,38.85442877,-77.21914412,51059450601,4506.01
2015,34886259,GALLWSRD,LOAD,37.91076027397263,33.339051369863014,3.6689531963470294,0.9027557077625566,8760,38.85442877,-77.21914412,51059450601,4506.01
2015,34886261,GLCARLYN,LOAD,37.88668835616435,33.339051369863014,3.6530776255707753,0.8945593607305933,8760,38.86952651,-77.12929085,51013101300,1013
2015,34886263,GLCARLYN,LOAD,38.06500913242012,33.339051369863014,3.653076484018264,1.0728812785388129,8760,38.86952651,-77.12929085,51013101300,1013
2015,34886265,GLCARLYN,LOAD,38.12301255707764,33.339051369863014,3.653076484018264,1.1308847031963474,8760,38.86952651,-77.12929085,51013101300,1013
2015,34886267,GLEBE,LOAD,37.97673515981734,33.339051369863014,3.648238584474885,0.9894452054794524,8760,38.84164768,-77.05461594,51013103402,1034.02
2015,34886269,GLEBE,LOAD,38.00584132420094,33.339051369863014,3.648988584474884,1.0178013698630135,8760,38.84164768,-77.05461594,51013103402,1034.02
2015,34886275,GUMSPRNG,LOAD,37.82663470319635,33.339051369863014,3.633092465753423,0.8544908675799083,8760,38.74867082,-77.08931275,51059421500,4215
2015,34886277,GUMSPRNG,LOAD,37.90928082191781,33.339051369863014,3.633093607305934,0.9371358447488574,8760,38.74867082,-77.08931275,51059421500,4215
2015,34886281,HAYFIEL4,LOAD,37.68884018264841,33.339051369863014,3.634232876712327,0.7155559360730593,8760,38.7631148,-77.15040432,51059422302,4223.02
2015,34886283,HAYFIEL4,LOAD,37.72219063926939,33.339051369863014,3.634288812785387,0.7488504566210046,8760,38.7631148,-77.15040432,51059422302,4223.02
2015,34886285,HERNDNPK,LOAD,38.06987671232876,33.339051369863014,3.795682648401826,0.9351426940639266,8760,38.96607667,-77.37907567,51059480802,4808.02
2015,34886287,HUNTER,LOAD,37.99373972602739,33.339051369863014,3.724955479452055,0.9297328767123286,8760,38.94811967,-77.32836393,51059481900,4819
2015,34886289,HUNTER,LOAD,38.02814041095888,33.339051369863014,3.724955479452055,0.9641335616438352,8760,38.94811967,-77.32836393,51059481900,4819
2015,34886295,INDEPHIL,LOAD,37.301523972602766,33.339051369863014,3.4962054794520525,0.4662671232876712,8760,38.63250082,-77.46074687,51153901306,9013.06
2015,34886305,JOHNSNDP,LOAD,37.49742351598172,33.339051369863014,3.626965753424657,0.5314063926940638,8760,38.83203344,-77.46574692,51059491301,4913.01
2015,34886307,KEENMILL,LOAD,37.82282191780819,33.339051369863014,3.66793607305936,0.8158344748858448,8760,38.77393307,-77.26349495,51059431300,4313
2015,34886309,KEENMILL,LOAD,37.603655251141575,33.339051369863014,3.624560502283107,0.6400433789954337,8760,38.77393307,-77.26349495,51059431300,4313
2015,34886311,LADYSMCT,LOAD,36.677940639269394,33.339051369863014,3.3508847031963467,-0.0119954337899543,8760,38.06684721,-77.51758861,51033030400,304
2015,34886313,LAKRIDGE,LOAD,37.83063356164384,33.339051369863014,3.667139269406391,0.8244429223744301,8760,38.69243138,-77.29486849,51153901223,9012.23
2015,34886315,LAKRIDGE,LOAD,37.742960045662066,33.339051369863014,3.6699942922374422,0.7339143835616436,8760,38.69243138,-77.29486849,51153901223,9012.23
2015,34886323,MIDDLEBG,LOAD,37.69436187214611,33.339051369863014,3.6436095890410978,0.7117009132420091,8760,38.95924315,-77.72156119,51107610900,6109
2015,34886325,MIDDLEBG,LOAD,37.7204805936073,33.339051369863014,3.6436084474885857,0.7378207762557077,8760,38.95924315,-77.72156119,51107610900,6109
2015,34886327,MINEROAD,LOAD,37.04692237442922,33.339051369863014,3.375391552511415,0.3324794520547945,8760,38.2502859,-77.47591398,51177020202,202.02
2015,34886329,MINEROAD,LOAD,37.0648607305936,33.339051369863014,3.37539611872146,0.3504132420091325,8760,38.2502859,-77.47591398,51177020202,202.02
2015,34886331,MINVILDP,LOAD,37.44906621004567,33.339051369863014,3.5368538812785384,0.5731609589041089,8760,38.65266973,-77.3483491,51153901203,9012.03
2015,34886333,MOOREDP,LOAD,37.34717009132423,33.339051369863014,3.605505707762558,0.40261301369863,8760,38.76755396,-77.37500478,51059492500,4925
2015,34886335,OAKGROV4,LOAD,37.236534246575346,33.339051369863014,3.287094748858447,0.6103881278538812,8760,38.18440517,-76.9986338,51193010300,103
2015,34886337,OCCOQUAN,LOAD,37.48772831050229,33.339051369863014,3.621245433789953,0.5274315068493156,8760,38.71315635,-77.26906377,51059492201,4922.01
2015,34886339,OCCOQUAN,LOAD,37.45929452054793,33.339051369863014,3.621123287671231,0.4991198630136984,8760,38.71315635,-77.26906377,51059492201,4922.01
2015,34886347,PLEASNTV,LOAD,37.67957420091325,33.339051369863014,3.675876712328765,0.6646461187214611,8760,39.07590817,-77.5288222,51107610506,6105.06
2015,34886349,PLEASNTV,LOAD,37.68810388127856,33.339051369863014,3.6758767123287654,0.6731757990867584,8760,39.07590817,-77.5288222,51107610506,6105.06
2015,34886371,POSSUMP4,LOAD,37.32480136986301,33.339051369863014,3.631639269406392,0.3541107305936074,8760,38.54052188,-77.27942618,51153900904,9009.04
2015,34886373,POSSUMP4,LOAD,37.32416666666667,33.339051369863014,3.6316324200913233,0.3534828767123289,8760,38.54052188,-77.27942618,51153900904,9009.04
2015,34886375,PRINCWIL,LOAD,37.33832990867581,33.339051369863014,3.584138127853881,0.415140410958904,8760,38.74964876,-77.47438746,51683910302,9103.02
2015,34886377,QUANTICO,LOAD,37.40086415525115,33.339051369863014,3.5782146118721463,0.4835981735159817,8760,38.51635438,-77.30371462,51153901100,9011
2015,34886379,QUANTICO,LOAD,37.40086415525115,33.339051369863014,3.5782146118721463,0.4835981735159817,8760,38.51635438,-77.30371462,51153901100,9011
2015,34886383,REMINGTN,LOAD,36.98881506849318,33.339051369863014,3.478486301369861,0.1712773972602739,8760,38.53964352,-77.7772197,51061930706,9307.06
2015,34886385,REMINGTN,LOAD,36.96298401826486,33.339051369863014,3.478477168949769,0.1454554794520548,8760,38.53964352,-77.7772197,51061930706,9307.06
2015,34886387,REMNTNCT,LOAD,36.87935502283106,33.33905136986302,3.490474885844746,0.0498287671232877,8760,38.543852,-77.76959512,51061930706,9307.06
2015,34886389,REMNTNCT,LOAD,36.942007990867566,33.33905136986302,3.4904771689497687,0.1124794520547945,8760,38.543852,-77.76959512,51061930706,9307.06
2015,34886391,RESTON,LOAD,38.02225114155253,33.33905136986302,3.72323401826484,0.9599657534246574,8760,38.95291359,-77.34561861,51059482202,4822.02
2015,34886393,RESTON,LOAD,37.98820319634704,33.33905136986302,3.72323401826484,0.9259178082191776,8760,38.95291359,-77.34561861,51059482202,4822.02
2015,34886395,RESTON,LOAD,38.03989269406395,33.33905136986302,3.723232876712328,0.9776084474885844,8760,38.95291359,-77.34561861,51059482202,4822.02
2015,34886397,ROSLYN,LOAD,38.04092579908677,33.33905136986302,3.650737442922373,1.0511369863013704,8760,38.89607909,-77.07153605,51013101603,1016.03
2015,34886399,ROSLYN,LOAD,38.04886872146121,33.33905136986302,3.650751141552509,1.0590662100456627,8760,38.89607909,-77.07153605,51013101603,1016.03
2015,34886401,ROSLYN,LOAD,38.04332876712331,33.33905136986302,3.650751141552509,1.0535262557077627,8760,38.89607909,-77.07153605,51013101603,1016.03
2015,34886403,ROSLYN,LOAD,38.042195205479466,33.33905136986302,3.650751141552509,1.0523926940639274,8760,38.89607909,-77.07153605,51013101603,1016.03
2015,34886405,SIDEBURN,LOAD,37.78539383561643,33.33905136986302,3.659614155251139,0.7867283105022832,8760,38.7982307,-77.29637919,51059431801,4318.01
2015,34886407,SLABTNDP,LOAD,37.00324086757991,33.33905136986302,3.381181506849315,0.2830079908675799,8760,38.22456512,-77.47377842,51177020205,202.05
2015,34886409,SMOKTNDP,LOAD,37.47019292237446,33.33905136986302,3.5951700913241997,0.5359714611872148,8760,38.64157111,-77.30230777,51153900403,9004.03
2015,34886411,SOWEGODP,LOAD,36.995900684931506,33.33905136986302,3.4526426940639268,0.2042066210045663,8760,38.59129348,-77.57779074,51061930704,9307.04
2015,34886413,STAFFORD,LOAD,37.56420319634704,33.33905136986302,3.572881278538813,0.652270547945206,8760,38.44610159,-77.3891976,51179010105,101.05
2015,34886415,STAFFORD,LOAD,37.40770319634704,33.33905136986302,3.572877853881278,0.4957739726027397,8760,38.44610159,-77.3891976,51179010105,101.05
2015,34886425,STJOHNS4,LOAD,36.8386415525114,33.33905136986302,3.334849315068494,0.1647408675799085,8760,38.03114507,-77.42765586,51033030500,305
2015,34886429,SULLY,LOAD,37.85951369863011,33.33905136986302,3.670397260273973,0.85006506849315,8760,38.91977204,-77.42839291,51059482501,4825.01
2015,34886431,SULLY,LOAD,37.73301141552512,33.33905136986302,3.6703961187214618,0.7235639269406395,8760,38.91977204,-77.42839291,51059482501,4825.01
2015,34886433,SWINKMIL,LOAD,38.079218036529674,33.33905136986302,3.7021038812785374,1.038062785388128,8760,38.95016605,-77.19950261,51059480201,4802.01
2015,34886435,TYSONS,LOAD,38.09170319634703,33.33905136986302,3.7073139269406377,1.045337899543379,8760,38.93202821,-77.23689132,51059480300,4803
2015,34886437,TYSONS,LOAD,37.983434931506864,33.33905136986302,3.7073139269406377,0.937069634703196,8760,38.93202821,-77.23689132,51059480300,4803
2015,34886439,TYSONS,LOAD,38.07773630136985,33.33905136986302,3.7073139269406377,1.03137100456621,8760,38.93202821,-77.23689132,51059480300,4803
2015,34886441,TYSONS,LOAD,38.01743036529679,33.33905136986302,3.7073127853881265,0.9710662100456616,8760,38.93202821,-77.23689132,51059480300,4803
2015,34886445,VANDORN,LOAD,37.66126141552512,33.33905136986302,3.631528538812783,0.6906815068493153,8760,38.79499351,-77.14928538,51059420201,4202.01
2015,34886447,VANDORN,LOAD,37.85816666666667,33.33905136986302,3.631372146118719,0.8877431506849317,8760,38.79499351,-77.14928538,51059420201,4202.01
2015,34886449,WALNEY,LOAD,37.81303196347032,33.33905136986302,3.67438926940639,0.7995913242009133,8760,38.8936558,-77.41158523,51059482601,4826.01
2015,34886451,WALNEY,LOAD,37.84471461187215,33.33905136986302,3.655293378995433,0.8503698630136984,8760,38.8936558,-77.41158523,51059482601,4826.01
2015,34886453,WAR,LOAD,38.048198630137,33.33905136986302,3.6506152968036503,1.0585319634703203,8760,38.86842435,-77.04946649,51013980100,9801
2015,34886455,WAR,LOAD,38.0479589041096,33.33905136986302,3.650617579908674,1.0582899543379003,8760,38.86842435,-77.04946649,51013980100,9801
2015,34886457,WAR,LOAD,37.99251712328768,33.33905136986302,3.650626712328765,1.0028390410958905,8760,38.86842435,-77.04946649,51013980100,9801
2015,34886459,WARRENTN,LOAD,37.03534931506849,33.33905136986302,3.4904771689497687,0.2058207762557077,8760,38.69742368,-77.76746382,51061930403,9304.03
2015,34886463,WOODBRGE,LOAD,37.62570433789955,33.33905136986302,3.624886986301368,0.6617659817351598,8760,38.65474502,-77.2825091,51153900403,9004.03
2015,34886465,WOODBRGE,LOAD,37.56268264840184,33.33905136986302,3.6322682648401807,0.5913630136986298,8760,38.65474502,-77.2825091,51153900403,9004.03
2015,34886467,WOODPKDP,LOAD,36.890688356164375,33.33905136986302,3.3493675799086744,0.2022694063926941,8760,38.09048893,-77.44548371,51033030400,304
2015,34886469,WOODSDP,LOAD,37.61935616438353,33.33905136986302,3.60804794520548,0.6722568493150681,8760,38.76741934,-77.47866716,51683910201,9102.01
2015,34886663,BARRCKRD,LOAD,36.14059589041096,33.33905136986302,3.0922305936073085,-0.2906860730593607,8760,38.07163454,-78.53051158,51003010800,108
2015,34886665,BARRCKRD,LOAD,36.07913356164384,33.33905136986302,2.9878184931506877,-0.247736301369863,8760,38.07163454,-78.53051158,51003010800,108
2015,34886687,BUENAVST,LOAD,34.30034589041095,33.33905136986302,1.1890799086757986,-0.2277853881278537,8760,37.73222872,-79.35673672,51530930600,9306
2015,34886689,BUENAVST,LOAD,34.22662214611872,33.33905136986302,1.1890821917808216,-0.3015114155251141,8760,37.73222872,-79.35673672,51530930600,9306
2015,34886693,CARTERSV,LOAD,36.41815182648404,33.33905136986302,2.742759132420093,0.3363413242009134,8760,37.65702131,-78.1277614,51049930100,9301
2015,34886697,CHARLTSV,LOAD,36.17126712328766,33.33905136986302,3.05760388127854,-0.2253881278538813,8760,38.04159285,-78.45782221,51540000900,9
2015,34886699,CHARLTSV,LOAD,36.296067351598175,33.33905136986302,3.057591324200914,-0.1005753424657534,8760,38.04159285,-78.45782221,51540000900,9
2015,34886701,CLIFTNFG,LOAD,34.22317009132422,33.33905136986302,1.1895536529680362,-0.3054349315068492,8760,37.81240178,-79.8241049,51005080100,801
2015,34886703,CLIFTNFG,LOAD,34.148450913242,33.33905136986302,1.189555936073059,-0.3801563926940635,8760,37.81240178,-79.8241049,51005080100,801
2015,34886707,COVINGTN,LOAD,34.096501141552515,33.33905136986302,1.1895468036529675,-0.4320970319634702,8760,37.76931997,-79.98599993,51580060200,602
2015,34886709,COVINGTN,LOAD,34.252152968036505,33.33905136986302,1.189547945205479,-0.2764463470319635,8760,37.76931997,-79.98599993,51580060200,602
2015,34886713,CROZET,LOAD,36.10719520547946,33.33905136986302,3.043884703196347,-0.2757408675799088,8760,38.08471039,-78.69854023,51003011100,111
2015,34886715,CULPEPER,LOAD,37.49380022831054,33.33905136986302,3.425301369863012,0.7294474885844746,8760,38.46946279,-77.9932396,51047930400,9304
2015,34886717,CULPEPER,LOAD,37.56214497716893,33.33905136986302,3.425297945205478,0.7977956621004564,8760,38.46946279,-77.9932396,51047930400,9304
2015,34886725,DAYTON,LOAD,37.27274086757992,33.33905136986302,3.5875605022831056,0.3461289954337901,8760,38.40984017,-78.92815215,51165011400,114
2015,34886727,DAYTON,LOAD,37.18854223744292,33.33905136986302,3.587562785388128,0.2619280821917807,8760,38.40984017,-78.92815215,51165011400,114
2015,34886739,DUPWAYNE,LOAD,36.20093036529682,33.33905136986302,3.1502374429223767,-0.2883584474885843,8760,38.0611923,-78.88086204,51820003200,32
2015,34886741,DUPWAYNE,LOAD,36.20093036529682,33.33905136986302,3.1502374429223767,-0.2883584474885843,8760,38.0611923,-78.88086204,51820003200,32
2015,34886749,EDINBUR4,LOAD,36.52958904109592,33.33905136986302,3.043348173515982,0.1471894977168949,8760,38.83404615,-78.5360772,51171040600,406
2015,34886751,EDINBUR4,LOAD,36.632380136986306,33.33905136986302,3.0433481735159815,0.249980593607306,8760,38.83404615,-78.5360772,51171040600,406
2015,34886755,ELKTONDP,LOAD,36.65669520547946,33.33905136986302,3.2812363013698636,0.0364075342465753,8760,38.3530038,-78.6663132,51165010100,101
2015,34886761,FAIRFELD,LOAD,34.268079908675794,33.33905136986302,1.1893184931506842,-0.2602899543378995,8760,37.8705064,-79.30672405,51163930100,9301
2015,34886763,FISHERSV,LOAD,36.46563698630134,33.33905136986302,3.150216894977171,-0.0236312785388127,8760,38.09569253,-78.95571892,51015070600,706
2015,34886765,FISHERSV,LOAD,36.602358447488584,33.33905136986302,3.15021575342466,0.1130913242009132,8760,38.09569253,-78.95571892,51015070600,706
2015,34886771,GORDONSV,LOAD,36.400221461187215,33.33905136986302,3.187147260273971,-0.1259771689497716,8760,38.12406512,-78.20421808,51109950300,9503
2015,34886779,GROTTOES,LOAD,36.450014840182675,33.33905136986302,3.263997716894977,-0.1530342465753424,8760,38.26606908,-78.81281928,51165012000,120
2015,34886791,HOLLYMD,LOAD,36.382189497716865,33.33905136986302,3.198916666666664,-0.1557785388127854,8760,38.12733997,-78.43377319,51003010300,103
2015,34886799,KIDDSTDP,LOAD,35.663203196347055,33.33905136986302,2.691987442922376,-0.3678356164383562,8760,37.79953752,-78.36834662,51065020300,203
2015,34886801,LAKEOFWD,LOAD,37.01300570776257,33.33905136986302,3.294288812785389,0.3796655251141556,8760,38.313533,-77.78125429,51137110103,1101.03
2015,34886803,LAKEOFWD,LOAD,37.01300570776257,33.33905136986302,3.294288812785389,0.3796655251141556,8760,38.313533,-77.78125429,51137110103,1101.03
2015,34886807,LOUISA,LOAD,36.511664383561666,33.33905136986302,3.3026301369863016,-0.1300171232876712,8760,38.1174189,-78.21546139,51109950300,9503
2015,34886819,MIDWAYDP,LOAD,36.33985045662099,33.33905136986302,3.099601598173517,-0.0988025114155251,8760,38.02658212,-78.70715991,51003011201,112.01
2015,34886821,MITCHLDP,LOAD,37.221815068493136,33.33905136986302,3.3891073059360752,0.4936563926940637,8760,38.36749298,-77.99374172,51047930501,9305.01
2015,34886825,MTJACKS4,LOAD,36.631921232876685,33.33905136986302,3.207413242009132,0.0854566210045661,8760,38.72436542,-78.6617298,51171040700,407
2015,34886827,MTJACKS4,LOAD,36.588052511415526,33.33905136986302,3.207415525114155,0.0415856164383561,8760,38.72436542,-78.6617298,51171040700,407
2015,34886845,NIRIVER,LOAD,36.81747260273972,33.33905136986302,3.3111449771689503,0.1672762557077625,8760,38.24325646,-77.58614837,51177020310,203.10
2015,34886847,NRIVERDP,LOAD,36.59545433789954,33.33905136986302,3.442568493150686,-0.1861655251141553,8760,38.34759674,-78.89656327,51165011700,117
2015,34886853,PAYTESDP,LOAD,37.10491666666668,33.33905136986302,3.301317351598171,0.4645479452054794,8760,38.22622493,-77.83495515,51177020405,204.05
2015,34886855,PROFITDP,LOAD,36.24181506849317,33.33905136986302,3.1997511415525093,-0.2969874429223745,8760,38.11857582,-78.41537937,51003010300,103
2015,34886857,PROFITDP,LOAD,36.24181506849317,33.33905136986302,3.1997511415525093,-0.2969874429223745,8760,38.11857582,-78.41537937,51003010300,103
2015,34886867,SHERWOOD,LOAD,36.830886986301365,33.33905136986302,3.2101301369863027,0.2817054794520547,8760,38.02126164,-78.52598849,51003011202,112.02
2015,34886869,SHERWOOD,LOAD,36.719128995433785,33.33905136986302,3.210150684931508,0.1699269406392693,8760,38.02126164,-78.52598849,51003011202,112.02
2015,34886877,STAUNTON,LOAD,36.58140981735158,33.33905136986302,3.2746826484018263,-0.0323242009132419,8760,38.14781859,-79.06615965,51790000500,5
2015,34886883,TIMBERVL,LOAD,37.419375570776246,33.33905136986302,3.494428082191784,0.5858961187214611,8760,38.62739254,-78.77872878,51165010800,108
2015,34886887,TODDSTVN,LOAD,36.91999200913243,33.33905136986302,3.315671232876712,0.265269406392694,8760,38.2478853,-77.66591262,51177020113,201.13
2015,34886889,TRICESLK,LOAD,35.80986529680366,33.33905136986302,2.7427591324200935,-0.271945205479452,8760,37.66297275,-78.23822108,51049930100,9301
2015,34886895,VERONA,LOAD,36.70426027397261,33.33905136986302,3.3287363013698625,0.036472602739726,8760,38.18989681,-78.98580918,51015070700,707
2015,34886897,VERONA,LOAD,36.76587214611872,33.33905136986302,3.3287374429223737,0.0980833333333334,8760,38.18989681,-78.98580918,51015070700,707
2015,34886899,WAYNESBO,LOAD,36.32616210045662,33.33905136986302,3.1502260273972627,-0.1631152968036529,8760,38.06026197,-78.87994886,51820003200,32
2015,34886907,WEYERSCV,LOAD,36.80963698630136,33.33905136986302,3.400745433789955,0.0698401826484018,8760,38.28289371,-78.90590835,51015070300,703
2015,38367797,OAKHALL,LOAD,62.04497602739728,33.33905136986302,25.51528538812785,3.19063926940639,8760,37.94334067,-75.57043579,51001090200,902
2015,38367843,STRASBUR,LOAD,36.163110730593615,33.33905136986302,2.88138812785388,-0.0573287671232876,8760,39.00164336,-78.35871382,51171040100,401
2015,38367847,HANSONVL,LOAD,30.562343607305944,33.33905136986302,-1.3469977168949752,-1.4297100456621,8760,36.84781902,-82.12132495,51167030401,304.01
2015,38367909,HARMONYV,LOAD,37.21393721461187,33.33905136986302,3.195956621004567,0.678929223744292,8760,37.58231166,-76.48478139,51119951100,9511
2015,38367911,SUFFOLK,LOAD,36.53732534246576,33.33905136986302,3.073139269406392,0.1251347031963471,8760,36.7103221,-76.58046887,51800075601,756.01
2015,38367913,LOVETTSV,LOAD,37.7363915525114,33.33905136986302,3.64193493150685,0.7554052511415523,8760,39.2954316,-77.63267947,51107610102,6101.02
2015,38367919,GORDONSV,LOAD,36.273910958904096,33.33905136986302,3.187149543378994,-0.2522899543378994,8760,38.12406512,-78.20421808,51109950300,9503
2015,38367921,GORDONSV,LOAD,36.273910958904096,33.33905136986302,3.187149543378994,-0.2522899543378994,8760,38.12406512,-78.20421808,51109950300,9503
2015,38367925,REDHILL,LOAD,36.42192694063927,33.33905136986302,3.1371803652968024,-0.0543047945205479,8760,37.96676425,-78.62678058,51003011202,112.02
2015,40243517,HARRISON,LOAD,32.76804566210045,33.33905136986302,-1.4651974885844736,0.8941917808219177,8760,38.81146883,-77.45130042,51059491301,4913.01
2015,40243581,LIBERTY,LOAD,32.92844748858447,33.33905136986302,-1.522560502283104,1.1119566210045662,8760,38.77464047,-77.53375099,51153901409,9014.09
2015,40243583,LIBERTY,LOAD,32.92844748858447,33.33905136986302,-1.522560502283104,1.1119566210045662,8760,38.77464047,-77.53375099,51153901409,9014.09
2015,41935397,BEAR DPL,LOAD,31.584857305936083,33.33905136986302,-2.184722602739722,0.4305285388127849,8760,37.83706572,-77.36238895,51033030600,306
2015,41935445,GREENWAY,LOAD,37.80920776255704,33.33905136986302,3.8257751141552503,0.6443812785388129,8760,39.00405042,-77.47959763,51107611020,6110.20
2015,41935447,PLEASNTV,LOAD,37.578299086758,33.33905136986302,3.6764235159817336,0.562824200913242,8760,39.07590817,-77.5288222,51107610506,6105.06
2015,44460761,HILL,LOAD,32.0828892694064,33.33905136986302,-1.8519965753424636,0.5958344748858452,8760,36.72236029,-82.63475531,51169030300,303
2015,44460763,HILL,LOAD,32.0828892694064,33.33905136986302,-1.8519965753424636,0.5958344748858452,8760,36.72236029,-82.63475531,51169030300,303
2015,44460837,WARRENTN,LOAD,36.95546803652968,33.33905136986302,3.490482876712325,0.1259337899543379,8760,38.69742368,-77.76746382,51061930403,9304.03
2015,45565837,ABINGDON,LOAD,30.70287328767123,33.33905136986302,-1.3441860730593596,-1.2919920091324208,8760,36.72004621,-82.00796658,51191010501,105.01
2015,45565839,CENTRVIL,LOAD,36.69268493150685,33.33905136986302,3.5140719178082156,-0.1604383561643836,8760,37.3745952,-79.50196995,51019030401,304.01
2015,45565841,CENTRVIL,LOAD,36.72884931506849,33.33905136986302,3.514074200913239,-0.1242762557077624,8760,37.3745952,-79.50196995,51019030401,304.01
2015,45565849,HANCOCK,LOAD,34.182808219178085,33.33905136986302,1.0853892694063916,-0.2416324200913239,8760,37.26744642,-80.02305441,51775010501,105.01
2015,45565859,MOSELEY,LOAD,36.51664611872147,33.33905136986302,3.290394977168949,-0.1128002283105023,8760,37.35232939,-79.56578353,51019030401,304.01
2015,45565861,MOSELEY,LOAD,36.73870890410961,33.33905136986302,3.2903938356164373,0.1092636986301369,8760,37.35232939,-79.56578353,51019030401,304.01
2015,45565869,COMORNDP,LOAD,36.99571803652966,33.33905136986302,3.3427317351598167,0.3139349315068494,8760,38.28668182,-77.23107827,51099040300,403
2015,45565877,WALTHALL,LOAD,36.51594292237443,33.33905136986302,3.243703196347032,-0.0668116438356164,8760,37.30339617,-77.39916863,51041100506,1005.06
2015,45565881,BEAUMEAD,LOAD,37.98650684931509,33.33905136986302,3.899007990867581,0.748447488584475,8760,39.02615843,-77.4564009,51107611018,6110.18
2015,45565889,CROZET,LOAD,36.14631164383559,33.339051369863014,3.162839041095891,-0.3555787671232877,8760,38.08471039,-78.69854023,51003011100,111
2015,47012197,BEAR DPL,LOAD,31.584857305936083,33.339051369863014,-2.1847226027397224,0.4305285388127849,8760,37.83706572,-77.36238895,51033030600,306
2015,47012199,BEAR DPL,LOAD,31.584857305936083,33.339051369863014,-2.1847226027397224,0.4305285388127849,8760,37.83706572,-77.36238895,51033030600,306
2015,47012201,DOUBLETO,LOAD,36.04340410958905,33.339051369863014,2.764933789954338,-0.0605810502283104,8760,39.06134905,-78.13704877,51043010200,102
2015,47012229,STJOHNDP,LOAD,36.58186187214613,33.339051369863014,3.2887180365296804,-0.0459075342465753,8760,38.0293359,-77.43118131,51033030500,305
2015,48934095,AQUIA,LOAD,37.33513356164382,33.339051369863014,3.605466894977168,0.3906152968036528,8760,38.45115318,-77.38765809,51179010103,101.03
2015,51519927,WURNO,LOAD,32.83932762557078,33.339051369863014,-0.0867648401826493,-0.4129589041095891,8760,37.07469255,-80.71740545,51155210202,2102.02
2015,51519929,WMORELN4,LOAD,37.1661404109589,33.339051369863014,3.270829908675801,0.5562591324200914,8760,38.00835039,-76.74359278,51193010100,101
2015,51519931,GAINESVL,LOAD,37.36837328767121,33.339051369863014,3.588881278538812,0.4404406392694063,8760,38.79084529,-77.56517207,51153901410,9014.10
2015,51519933,MIDDLEBG,LOAD,37.73002625570776,33.339051369863014,3.6436084474885857,0.7473664383561645,8760,38.95924315,-77.72156119,51107610900,6109
2015,57967521,RIVERTON,LOAD,36.070607305936086,33.339051369863014,2.7749086757990877,-0.0433527397260274,8760,38.96540748,-78.17722791,51187020200,202
2015,57967571,CHRCHLND,LOAD,37.24743949771689,33.339051369863014,3.424130136986302,0.48425799086758,8760,36.87106757,-76.37693635,51740213001,2130.01
2015,57967575,BECO,LOAD,37.96052739726029,33.339051369863014,3.871871004566211,0.7496050228310497,8760,39.02455767,-77.43713272,51107611018,6110.18
2015,57967577,GREENWAY,LOAD,37.64727625570779,33.339051369863014,3.7321187214611866,0.5761061643835612,8760,39.00405042,-77.47959763,51107611020,6110.20
2015,57967579,SWINKMIL,LOAD,37.989723744292235,33.339051369863014,3.7021038812785374,0.9485684931506848,8760,38.95016605,-77.19950261,51059480201,4802.01
2015,57967581,PEACHGDP,LOAD,36.60067694063929,33.339051369863014,3.4648767123287665,-0.2032511415525114,8760,38.38144379,-78.88548045,51165011700,117
2015,61482237,STEPHENS,LOAD,37.01369520547947,33.339051369863014,3.268817351598174,0.4058264840182648,8760,39.24490028,-78.08836906,51069050100,501
2015,61482239,STEPHENS,LOAD,37.01371347031966,33.339051369863014,3.268820776255708,0.4058413242009132,8760,39.24490028,-78.08836906,51069050100,501
2015,61482241,FOREST2,LOAD,38.23705821917808,33.339051369863014,5.102700913242008,-0.2046940639269404,8760,37.36345077,-79.29310555,51019030103,301.03
2015,61482253,OTTER,LOAD,38.69030479452056,33.339051369863014,5.914436073059357,-0.5631826484018266,8760,37.14295548,-79.28041261,51031020600,206
2015,61482255,STARKEY,LOAD,34.01802853881278,33.339051369863014,0.9925148401826488,-0.3135376712328768,8760,37.21172208,-79.9872354,51161030802,308.02
2015,63381219,NORTHEAS,LOAD,45.642392694063936,33.339051369863014,10.81453310502283,1.4888082191780814,8760,37.55070134,-77.3623233,51087201201,2012.01
2015,63381221,NORTHEAS,LOAD,45.64240296803654,33.339051369863014,10.814534246575342,1.4888173515981726,8760,37.55070134,-77.3623233,51087201201,2012.01
2015,63381245,SNOWDENR,LOAD,40.0305091324201,33.339051369863014,5.560923515981736,1.130534246575342,8760,37.57358082,-79.37089437,51009010100,101
2015,63381247,SNOWDENR,LOAD,40.12048059360729,33.339051369863014,5.560923515981737,1.2205057077625572,8760,37.57358082,-79.37089437,51009010100,101
2015,63381249,SNOWDENR,LOAD,40.15144748858447,33.339051369863014,5.563635844748863,1.2487602739726027,8760,37.57358082,-79.37089437,51009010100,101
2015,63381273,PROGRESS,LOAD,32.88202397260274,33.339051369863014,-0.3700079908675802,-0.087019406392694,8760,36.96108746,-81.00360188,51197050100,501
2015,63381281,BALSTON,LOAD,37.887730593607294,33.339051369863014,3.652092465753423,0.8965867579908676,8760,38.88498274,-77.0984868,51013101500,1015
2015,63381285,LADYSMCT,LOAD,36.6394920091324,33.339051369863014,3.312439497716895,-0.0119988584474886,8760,38.06684721,-77.51758861,51033030400,304
2015,65732129,PROGRESS,LOAD,32.88202397260274,33.339051369863014,-0.3700079908675802,-0.087019406392694,8760,36.96108746,-81.00360188,51197050100,501
2015,67719559,FLOYD,LOAD,33.220729452054805,33.339051369863014,0.1162853881278533,-0.2346073059360729,8760,36.92592942,-80.30859177,51063920101,9201.01
2015,67719561,GARRISON,LOAD,31.96888584474885,33.339051369863014,-0.2385901826484014,-1.1315753424657529,8760,38.45567963,-77.48973414,51179010205,102.05
2015,67719585,THRASHER,LOAD,38.033098173515995,33.339051369863014,4.227632420091323,0.466414383561644,8760,36.7592624,-76.24016888,51550020805,208.05
2015,71856523,MTN RUN,LOAD,49.349696420480285,43.78558676937019,4.125645672859086,1.4384639782510198,2207,38.46291035,-77.97397651,51047930400,9304
2015,71856525,MTN RUN,LOAD,49.349696420480285,43.78558676937019,4.125645672859086,1.4384639782510198,2207,38.46291035,-77.97397651,51047930400,9304
2015,71856527,MTN RUN,LOAD,49.349696420480285,43.78558676937019,4.125645672859086,1.4384639782510198,2207,38.46291035,-77.97397651,51047930400,9304
2015,74008591,GOSHEN,LOAD,32.05885958904109,33.339051369863014,-2.2235513698630114,0.9433595890410952,8760,37.96834452,-79.5092247,51163930200,9302
2015,74008661,ELKO4,LOAD,36.55014155251142,33.339051369863014,3.1758595890410977,0.0352305936073059,8760,37.47725917,-77.23744483,51087201404,2014.04
2015,74008665,LANDSTWN,LOAD,37.97194406392695,33.339051369863014,4.070921232876711,0.5619714611872144,8760,36.77130203,-76.0921628,51810045423,454.23
2015,74008667,MCLAUGH,LOAD,38.0944691780822,33.339051369863014,3.9632305936073062,0.7921872146118722,8760,36.87418604,-76.29850469,51710002700,27
2015,76427739,BECO,LOAD,37.95944178082193,33.339051369863014,3.869931506849317,0.7504589041095887,8760,39.02455767,-77.43713272,51107611018,6110.18
2015,76427741,DRANESVL,LOAD,37.99692579908674,33.339051369863014,3.762602739726026,0.8952716894977166,8760,38.97939788,-77.36155865,51059480503,4805.03
2015,83734357,GREENWAY,LOAD,37.7277819634703,33.339051369863014,3.754956621004566,0.63377397260274,8760,39.00405042,-77.47959763,51107611020,6110.20
2015,93353405,DANVILPL,LOAD,31.95080593607306,33.339051369863014,-1.357775114155247,-0.0304703196347031,8760,36.63167603,-79.39757009,51590000100,1
2015,93353407,DANVILPL,LOAD,31.95080593607306,33.339051369863014,-1.357775114155247,-0.0304703196347031,8760,36.63167603,-79.39757009,51590000100,1
2015,93353453,TECHDRIV,LOAD,33.609133561643844,33.339051369863014,0.6515616438356167,-0.3814794520547947,8760,37.12252838,-80.38395996,51121020900,209
2015,93353461,NIVO,LOAD,37.99822031963473,33.339051369863014,3.8990114155251137,0.7601575342465751,8760,39.02340639,-77.46050049,51107611006,6110.06
2015,93353463,NIVO,LOAD,37.9934885844749,33.339051369863014,3.899010273972602,0.7554269406392692,8760,39.02340639,-77.46050049,51107611006,6110.06
2015,93353465,NWEST,LOAD,36.70731735159816,33.339051369863014,3.214058219178084,0.1542077625570776,8760,37.63046819,-77.54155697,51087200126,2001.26
2015,98369935,PATRIOTC,LOAD,32.42363470319635,33.339051369863014,-0.3408721461187224,-0.5745445205479456,8760,36.7058555,-79.91481694,51089010100,101
2015,98369939,SHACKMIL,LOAD,31.609743150684935,33.339051369863014,-1.19148401826484,-0.5378242009132422,8760,37.21348876,-81.90381736,51027010600,106
2015,98369961,MARSHRUN,LOAD,36.663320776255695,33.339051369863014,3.2823926940639243,0.0418767123287671,8760,38.52789851,-77.7696135,51061930706,9307.06
2015,98369963,MARSHRUN,LOAD,36.663319634703186,33.339051369863014,3.2823926940639243,0.0418755707762557,8760,38.52789851,-77.7696135,51061930706,9307.06
2015,98370183,NASA,LOAD,32.78875799086759,33.339051369863014,-0.4678652968036524,-0.0824280821917809,8760,37.09336742,-76.38503463,51650010200,102
2015,98370185,NASA,LOAD,32.78875799086759,33.339051369863014,-0.4678652968036524,-0.0824280821917809,8760,37.09336742,-76.38503463,51650010200,102
2015,112586009,LOCKHART,LOAD,31.09505365296804,33.339051369863014,-1.4302534246575334,-0.8137442922374429,8760,37.15385841,-82.42560196,51051040300,403
2015,112586035,INDUSTPK,LOAD,38.37707305936075,33.339051369863014,4.11338926940639,0.9246324200913236,8760,36.86389966,-76.24852728,51710003300,33
2015,112586037,LGHTFOOT,LOAD,37.002181506849304,33.339051369863014,3.174905251141554,0.4882248858447492,8760,37.32823051,-76.75710981,51095080301,803.01
2015,123900989,IDYLWOO4,LOAD,37.84411415525114,33.339051369863014,3.6823801369863,0.8226826484018263,8760,38.88564244,-77.20960835,51059471402,4714.02
2015,1067161163,LKFOREST,LOAD,34.196566210045674,33.339051369863014,1.5445148401826472,-0.6869999999999998,8760,37.37838469,-79.84733838,51023040401,404.01
2015,1067162354,FULLERRD,LOAD,37.40271689497716,33.339051369863014,3.619530821917809,0.4441347031963467,8760,38.50080254,-77.36493535,51179010108,101.08
2015,1067162492,RADNORHT,LOAD,37.91793264840182,33.339051369863014,3.651429223744291,0.9274520547945204,8760,38.88597774,-77.08253236,51013103401,1034.01
2015,1075443367,CAMBRIA,LOAD,31.38385273972603,33.339051369863014,-1.216490867579907,-0.7387077625570773,8760,37.14251464,-80.41473651,51121020800,208
2015,1075448052,TYLER,LOAD,36.37129794520549,33.339051369863014,3.158664383561645,-0.1264178082191781,8760,37.35109094,-77.39523909,51041100509,1005.09
2015,1084383072,HUNTINCT,LOAD,34.43259817351598,33.339051369863014,1.1534691780821915,-0.0599223744292238,8760,37.30857259,-79.93011714,51770000400,4
2015,1084384387,ELKO4,LOAD,36.5646803652968,33.339051369863014,3.177437214611874,0.0481917808219177,8760,37.47725917,-77.23744483,51087201404,2014.04
2015,1084384755,SHELLBNK,LOAD,37.134221461187195,33.339051369863014,3.158706621004566,0.6364634703196351,8760,37.02997092,-76.3670871,51650010502,105.02
2015,1084384756,SHELLBNK,LOAD,37.13123858447485,33.339051369863014,3.1587260273972597,0.6334611872146122,8760,37.02997092,-76.3670871,51650010502,105.02
2015,1084385301,HOPEWELL,LOAD,30.43496118721461,33.339051369863014,-1.9867557077625533,-0.9173344748858456,8760,37.29006049,-77.28266628,51670980100,9801
2015,1097726418,CHATHAM4,LOAD,37.27564155251142,33.339051369863014,4.087071917808215,-0.1504817351598175,8760,36.84947605,-79.38763529,51143010500,105
2015,1097726960,ELKRUNDP,LOAD,36.944762557077624,33.339051369863014,3.5040947488584453,0.1016164383561643,8760,38.55627275,-77.70973563,51061930705,9307.05
2015,1097727061,SIDEBURN,LOAD,37.78509589041096,33.339051369863014,3.659601598173512,0.7864429223744293,8760,38.7982307,-77.29637919,51059431801,4318.01
